lat,lng,bank,tail3,trans,note,pic,district,ward,street,province
21.139575454545454,105.9379818181818,VTB,438,33,,cu.tran,Thị xã Từ Sơn,,Đường Nguyễn Văn Cừ,Bắc Ninh
21.145458125000005,106.110640625,MBB,188,80,,hoang.than,Thành phố Bắc Ninh,,Đường Đàm Văn Tiết,Bắc Ninh
21.053506428571428,106.08743071428572,BIDV,425,50,,tung.doan1,Huyện Thuận Thành,,Đường Âu Cơ,Bắc Ninh
21.119453571428572,105.96228714285714,MBB,946,39,Đã có loa  không có nhu cầu mua thêm,qui.nguyen,Thị xã Từ Sơn,,Đường Trần Phú,Bắc Ninh
21.1735325,106.10781,TCB,401,81,,nam.trinh,Huyện Quế Võ,,Phố Tú Mỡ,Bắc Ninh
21.16856,106.19083,MBB,832,10,,nam.trinh,Huyện Quế Võ,,Ngõ 524 Đường Khuất Duy Tiến,Bắc Ninh
21.060002352941176,106.08624647058824,BIDV,280,84,Đã có loa chuyển khoản.Không tiếp cận được chủ cửa hàng,tung.doan1,Huyện Thuận Thành,,Đường Âu Cơ,Bắc Ninh
21.175325,106.07882333333332,TCB,357,47,khách hàng đã có loa,nhat.nguyen17,Thành phố Bắc Ninh,,Đường Đấu Mã,Bắc Ninh
21.148503888888893,106.11073083333333,TCB,573,69,,hoang.than,Thành phố Bắc Ninh,,Đường Thái Bảo,Bắc Ninh
21.092537999999998,105.96895199999999,SHB,24,17,,tien.nguyen30,Thị xã Từ Sơn,,Phố Sóc Cả,Bắc Ninh
21.196381666666667,106.07221166666668,TPB,359,43,khách hàng đã có loa,nhat.nguyen17,Thành phố Bắc Ninh,,Đường Phúc Sơn,Bắc Ninh
21.171966666666666,106.07334133333333,TCB,495,43,khách đã được ngân hàng tặng loa,nhat.nguyen17,Thành phố Bắc Ninh,,Đường Nguyễn Đăng Đạo,Bắc Ninh
21.146476666666672,106.12003277777778,VTB,200,94,Ko,hoang.than,Thành phố Bắc Ninh,,Đường Đa Cấu,Bắc Ninh
21.102049230769229,105.98560076923077,VTB,156,30,,tung.doan1,Huyện Tiên Du,,Đường N5-1,Bắc Ninh
21.189181875000003,106.0146225,TCB,448,68,Đã dùng loa Vietinbank. Đang xem xét về chương trình  quay lại chăm sóc sau 1 tuần,cu.tran,Huyện Yên Phong,,Đường An Dương Vương,Bắc Ninh
21.147495333333335,106.06798,SHINHAN,292,50,,lieu.truong,Thành phố Bắc Ninh,,Đường Ném Thượng,Bắc Ninh
21.052868571428572,106.17921,BIDV,1V1,29,,tung.doan1,Huyện Gia Bình,,Đường Thiên Thai,Bắc Ninh
21.009096666666668,106.18452333333333,TCB,761,13,,tung.doan1,Huyện Lương Tài,,Đường tỉnh 281,Bắc Ninh
21.052976111111111,106.17593000000001,BIDV,158,48,Cửa hàng đã chuyển địa điểm,tung.doan1,Huyện Gia Bình,,Đường Nguyễn Văn Cừ,Bắc Ninh
21.084780625,105.94332250000001,MBB,838,40,,qui.nguyen,Thị xã Từ Sơn,,Ngõ 305 Đường Ninh Hiệp,Bắc Ninh
21.182822,106.06750400000001,TCB,428,30,,nhat.nguyen17,Thành phố Bắc Ninh,,Phố Nguyễn Hữu Nghiêm,Bắc Ninh
21.157642857142857,106.12404857142857,MBB,526,32,,nam.trinh,Huyện Quế Võ,,Đường Trần Hưng Đạo,Bắc Ninh
21.180198181818181,106.05781,VTB,576,35,,nhat.nguyen17,Thành phố Bắc Ninh,,Đường Lê Phụng Hiểu,Bắc Ninh
21.177635714285714,106.03551714285715,VTB,157,20,,,Thành phố Bắc Ninh,,Đường Nguyễn Quốc Ích,Bắc Ninh
21.19366,106.08423,VTB,868,22,,,Thành phố Bắc Ninh,,Ngõ 121 Đường Hoàng Quốc Việt,Bắc Ninh
21.157397500000002,106.12739499999999,TCB,722,13,,nam.trinh,Huyện Quế Võ,,Đường Trần Hưng Đạo,Bắc Ninh
21.149205714285713,106.11147142857142,VTB,886,37,,hoang.than,Thành phố Bắc Ninh,,Đường Đàm Văn Lễ,Bắc Ninh
21.118165625,105.95987,MBB,642,57,Đã có loa. Không có nhu cầu mua thêm,qui.nguyen,Thị xã Từ Sơn,,Đường Trần Phú,Bắc Ninh
21.160847368421056,106.1296447368421,VCB,675,71,,nam.trinh,Huyện Quế Võ,,Phố Giang Liễu,Bắc Ninh
21.151933333333332,106.14960333333333,MBB,213,10,,nam.trinh,Huyện Quế Võ,,Ngõ 956 Đường Quang Trung,Bắc Ninh
21.193920000000002,106.123995,ACB,606,10,,nam.trinh,Huyện Quế Võ,,Đường Quang Trung,Bắc Ninh
21.14331,105.93567588235292,SACOM,406,39,,cu.tran,Thị xã Từ Sơn,,Phố Phù Đàm 1,Bắc Ninh
21.149842222222222,106.1054788888889,AGRIBANK,90,48,,hoang.than,Thành phố Bắc Ninh,,Đường Núi Bàn Cờ,Bắc Ninh
21.1121225,105.948546875,TCB,41,84,,qui.nguyen,Thị xã Từ Sơn,,Đường Trần Phú,Bắc Ninh
21.190252,106.00230599999999,TCB,593,16,,nhat.nguyen17,Huyện Yên Phong,,Đường cao tốc Nội Bài – Bắc Ninh,Bắc Ninh
21.15339925925926,106.14007037037037,SACOM,344,91,,nam.trinh,Huyện Quế Võ,,Đường Nguyễn Phong Sắc,Bắc Ninh
21.148383076923075,106.11355038461539,MBB,888,125,,hoang.than,Thành phố Bắc Ninh,,Đường Đặng Cung,Bắc Ninh
21.090155714285714,105.97889142857143,ACB,867,38,,qui.nguyen,Thị xã Từ Sơn,,Đường Trần Cố,Bắc Ninh
21.11857625,105.965265,MBB,329,25,,tien.nguyen30,Thị xã Từ Sơn,,Đường Lê Quang Đạo,Bắc Ninh
21.153043809523808,106.1254819047619,VCB,381,94,kh ko muốn dùng loa,nam.trinh,Huyện Quế Võ,,Đường D1-3,Bắc Ninh
21.15375,106.08185,VTB,955,10,,,Thành phố Bắc Ninh,,Ngõ 856 Đường Đàm Văn Tiết,Bắc Ninh
21.154184285714287,106.01286928571427,HDB,128,64,,tung.doan1,Huyện Tiên Du,,Đường tỉnh 270,Bắc Ninh
21.134764999999998,106.12737,TCB,570,22,,,Thành phố Bắc Ninh,,Phố Nguyễn Trọng Mại,Bắc Ninh
21.173466666666666,106.10847,TCB,384,18,,nam.trinh,Huyện Quế Võ,,Phố Tú Mỡ,Bắc Ninh
21.17376,106.10805,VTB,697,11,,nam.trinh,Huyện Quế Võ,,Phố Tú Mỡ,Bắc Ninh
21.165765882352943,106.09618647058824,VTB,215,48,Có quan tâm đang. Khách hàng muốn tìm hiểu thêm,hoang.than,Thành phố Bắc Ninh,,Ngõ 119 Đường Chu Mẫu,Bắc Ninh
21.039828125,106.03733125,TCB,889,35,,tung.doan1,Huyện Thuận Thành,,Đường Tô Quyền,Bắc Ninh
21.094813846153848,105.97410461538462,VCB,288,48,,qui.nguyen,Thị xã Từ Sơn,,Phố Giang Long,Bắc Ninh
21.113234545454546,105.95462636363638,TPB,909,51,,qui.nguyen,Thị xã Từ Sơn,,Đường Lê Quang Đạo,Bắc Ninh
21.167586923076922,106.0594176923077,TCB,287,25,,,Thành phố Bắc Ninh,,Phố Bồ Sơn,Bắc Ninh
21.170420000000004,106.10857,MBB,432,36,,nam.trinh,Huyện Quế Võ,,Phố Tú Mỡ,Bắc Ninh
21.187574358974366,106.06649179487179,TCB,418,121,,nhat.nguyen17,Thành phố Bắc Ninh,,Đường Hồ Ngọc Lân,Bắc Ninh
21.177981428571428,106.06233142857143,TCB,631,21,,,Thành phố Bắc Ninh,,Đường Huyền Quang,Bắc Ninh
21.15821,106.12382,TCB,216,15,,nam.trinh,Huyện Quế Võ,,Phố Trần Bàn,Bắc Ninh
21.050105555555557,106.1725411111111,BIDV,595,39,Sale đến vị trí nhưng địa điểm không tồn tại.không có hàng quán xung quanh,tung.doan1,Huyện Gia Bình,,Đường Trần Hưng Đạo,Bắc Ninh
21.11260625,105.980395,BIDV,16,27,,tien.nguyen30,Thị xã Từ Sơn,,Đường Lý Thánh Tông,Bắc Ninh
21.138319999999997,105.94619615384616,TCB,34,27,,tien.nguyen30,Thị xã Từ Sơn,,Phố Đồng Kỵ 2,Bắc Ninh
21.03555888888889,106.05966444444445,VTB,821,16,,tung.doan1,Huyện Thuận Thành,,Đường Lạc Long Quân,Bắc Ninh
21.047586470588232,106.11002647058824,MBB,338,59,Của hàng đã có loa của MBB,tung.doan1,Huyện Thuận Thành,,Phố Nguyễn Cư Đạo,Bắc Ninh
21.035904,106.041826,MBB,784,47,MC đã có loa chuyển khoản,tung.doan1,Huyện Thuận Thành,,Đường Lạc Long Quân,Bắc Ninh
21.115456666666667,105.96108583333334,VCB,333,39,Đã có loa. Không có nhu cầu mua thêm,qui.nguyen,Thị xã Từ Sơn,,Phố Chợ Gạo,Bắc Ninh
21.062925714285715,106.08399714285714,MBB,944,62,,tung.doan1,Huyện Thuận Thành,,Phố Nguyễn Chí Tố,Bắc Ninh
21.173722222222224,106.10777888888889,VCB,297,48,,nam.trinh,Huyện Quế Võ,,Phố Tú Mỡ,Bắc Ninh
21.029901538461541,106.01110461538461,TCB,140,40,Đã có loa ngân hàng,tung.doan1,Huyện Thuận Thành,,Đường Dương Đức Hiền,Bắc Ninh
21.153629076923075,106.12176323076923,TPB,666,238,kh ko dùng loa,nam.trinh,Huyện Quế Võ,,Đường D1-2,Bắc Ninh
21.179194230769227,106.06538192307693,MBB,998,74,,nhat.nguyen17,Thành phố Bắc Ninh,,Phố Hàng Mã,Bắc Ninh
21.143892857142855,106.08987285714285,MBB,645,37,Không có nhu cầu. Hẹn khi khác,hoang.than,Thành phố Bắc Ninh,,Đường Đàm Văn Tiết,Bắc Ninh
21.0913564516129,105.97834193548388,VTB,886,143,,qui.nguyen,Thị xã Từ Sơn,,Đường Trần Cố,Bắc Ninh
21.2046,106.05172571428571,VTB,512,21,,,Thành phố Bắc Ninh,,Đường Vua Bà,Bắc Ninh
21.091690909090911,105.96051545454544,VCB,665,92,,qui.nguyen,Thị xã Từ Sơn,,Trạm dừng nghỉ Từ Sơn,Bắc Ninh
21.119568571428569,105.95266285714285,MBB,370,20,,tien.nguyen30,Thị xã Từ Sơn,,Phố Trang Hạ,Bắc Ninh
21.059204615384616,106.08990923076924,SACOM,919,60,Cách Leadscout 5 mét,tung.doan1,Huyện Thuận Thành,,Đường Hai Bà Trưng,Bắc Ninh
21.164726666666667,106.12566277777779,MSB,225,53,,nam.trinh,Huyện Quế Võ,,Phố Giang Liễu,Bắc Ninh
21.197566666666667,106.00580666666667,VCB,169,12,,nhat.nguyen17,Huyện Yên Phong,,Đường YP6,Bắc Ninh
21.115319117647058,105.95816205882353,TPB,846,111,Đã có loa  không có nhu cầu mua thêm,qui.nguyen,Thị xã Từ Sơn,,Phố Chợ Tre,Bắc Ninh
21.159795294117647,106.12537235294117,MBB,154,106,,nam.trinh,Huyện Quế Võ,,Phố Nguyễn Đức Trung,Bắc Ninh
21.1139525,105.9943275,TCB,732,15,,qui.nguyen,Huyện Tiên Du,,Đường cao tốc Hà Nội - Bắc Giang,Bắc Ninh
21.205930000000002,105.981015,VTB,283,31,,cu.tran,Huyện Yên Phong,,Đường Yên Phong 5,Bắc Ninh
21.149091538461537,106.10496923076923,MBB,354,53,,lieu.truong,Thành phố Bắc Ninh,,Đường Nguyễn Ấu Miễn,Bắc Ninh
21.14808,105.93039875,VTB,334,23,,tien.nguyen30,Thị xã Từ Sơn,,Đường Nguyễn Văn Cừ,Bắc Ninh
21.160235882352943,106.12553117647059,MBB,8,47,Kh dùng mpos không có nhu cầu dùng loa nữa,nam.trinh,Huyện Quế Võ,,Phố Nguyễn Bỉnh Trục,Bắc Ninh
21.161605714285717,106.18005571428573,VTB,997,37,,nam.trinh,Huyện Quế Võ,,Đường Khuất Duy Tiến,Bắc Ninh
21.165625,106.066075,VCB,425,14,,,Thành phố Bắc Ninh,,Đường Nguyễn Quyền,Bắc Ninh
21.137529500000003,106.0769125,TCB,929,42,,manh.do1,Thành phố Bắc Ninh,,Đường Nguyễn Trãi,Bắc Ninh
21.146384,106.11345,TCB,922,16,,,Thành phố Bắc Ninh,,Đường Sơn Đông,Bắc Ninh
21.154805555555559,106.03772444444445,VTB,202,34,khách đã có loa ngân hàng tặng,nhat.nguyen17,Thành phố Bắc Ninh,,Phố Nguyễn Bá Lân,Bắc Ninh
21.181372999999997,106.06637800000001,TCB,899,22,,,Thành phố Bắc Ninh,,Đường Nguyễn Gia Thiều,Bắc Ninh
21.173451666666669,106.10836833333333,TCB,170,58,,nam.trinh,Huyện Quế Võ,,Phố Tú Mỡ,Bắc Ninh
21.171776428571427,106.06234428571429,not defined or m2m,20,39,,manh.do1,Thành phố Bắc Ninh,,Đường Nguyễn Trãi,Bắc Ninh
21.107968749999998,106.03839500000001,MBB,834,21,,qui.nguyen,Huyện Tiên Du,,Đường tỉnh 291,Bắc Ninh
21.093034000000003,105.98058,VCB,856,16,,tien.nguyen30,Thị xã Từ Sơn,,Phố Phù Lộc,Bắc Ninh
21.187586666666665,105.95499666666667,MBB,390,13,,nhat.nguyen17,Huyện Yên Phong,,Đường Văn Tiến Dũng,Bắc Ninh
21.165665999999998,106.06584866666667,BIDV,602,43,không tìm thấy,nhat.nguyen17,Thành phố Bắc Ninh,,Đường Nguyễn Quyền,Bắc Ninh
21.177705263157897,105.94027736842104,VTB,302,88,,cu.tran,Huyện Yên Phong,,Đường tỉnh 277,Bắc Ninh
21.148395500000003,106.07035550000002,VCB,972,47,Không tìm thấy cửa hàng,lieu.truong,Thành phố Bắc Ninh,,Đường Ném Thượng,Bắc Ninh
21.151944,106.10228000000001,MBB,535,28,,,Thành phố Bắc Ninh,,Đường Núi Bàn Cờ,Bắc Ninh
21.094778888888889,105.94102666666667,AGRIBANK,167,18,,tien.nguyen30,Thị xã Từ Sơn,,Đường Lý Huệ Tông,Bắc Ninh
21.140651818181819,106.11479999999999,TCB,242,86,Mc từ chối tiếp,hoang.than,Thành phố Bắc Ninh,,Đường Sơn Đông,Bắc Ninh
21.154866,105.928232,VTB,666,19,,tien.nguyen30,Thị xã Từ Sơn,,Đường Đàm Thận Huy,Bắc Ninh
21.150850000000002,106.104472,TCB,432,32,,hoang.than,Thành phố Bắc Ninh,,Đường Núi Bàn Cờ,Bắc Ninh
21.035661200000003,106.0588744,VTB,AK0,84,,tung.doan1,Huyện Thuận Thành,,Đường Lạc Long Quân,Bắc Ninh
21.151398571428572,106.10600428571429,TCB,424,18,,,Thành phố Bắc Ninh,,Đường Đàm Văn Lễ,Bắc Ninh
21.135506666666664,105.94653,MBB,115,23,,tien.nguyen30,Thị xã Từ Sơn,,Phố Đồng Kỵ 2,Bắc Ninh
21.174519411764706,105.95728882352941,ABB,597,42,,cu.tran,Huyện Yên Phong,,Đường tỉnh 295,Bắc Ninh
21.120543333333334,105.99180666666666,TCB,289,14,,qui.nguyen,Huyện Tiên Du,,Đường TS3,Bắc Ninh
21.1538125,106.15173250000001,TCB,737,13,,nam.trinh,Huyện Quế Võ,,Đường Quang Trung,Bắc Ninh
21.12128,105.98137,MBB,666,23,,tien.nguyen30,Thị xã Từ Sơn,,Phố Lư Vĩnh Xuyên,Bắc Ninh
21.165395,106.065315,MBB,688,13,,,Thành phố Bắc Ninh,,Đường Nguyễn Trãi,Bắc Ninh
21.030124999999998,106.01228833333333,VTB,666,15,,tung.doan1,Huyện Thuận Thành,,Đường Lạc Long Quân,Bắc Ninh
21.152711666666665,106.15566333333334,SACOM,714,25,,nam.trinh,Huyện Quế Võ,,Đường Trần Hưng Đạo,Bắc Ninh
21.176022000000003,106.073691,BIDV,896,30,,manh.do1,Thành phố Bắc Ninh,,Đường Bình Than,Bắc Ninh
21.177767741935487,106.06272483870968,VTB,886,116,,manh.do1,Thành phố Bắc Ninh,,Đường Huyền Quang,Bắc Ninh
21.19452,105.9512,AGRIBANK,24E,15,,nhat.nguyen17,Huyện Yên Phong,,Đường Huỳnh Thúc Kháng,Bắc Ninh
21.170255555555556,106.10801111111111,VCB,297,45,kh từng dùng loa momo không thích chuyển sang dùng loa mobi,nam.trinh,Huyện Quế Võ,,Phố Tú Mỡ,Bắc Ninh
21.127534285714283,106.19952142857143,TCB,379,14,,nam.trinh,Huyện Quế Võ,,Quốc lộ 18,Bắc Ninh
21.119944,105.96322400000001,BIDV,395,23,,tien.nguyen30,Thị xã Từ Sơn,,Đường Trần Phú,Bắc Ninh
21.111083636363634,105.95654727272728,VTB,868,33,,qui.nguyen,Thị xã Từ Sơn,,Phố Tô Hiến Thành,Bắc Ninh
21.15071,106.1639475,VTB,389,13,,nam.trinh,Huyện Quế Võ,,Đường Trần Hưng Đạo,Bắc Ninh
21.119043015873018,105.95970888888888,MBB,112,133,Đã dùng loa MB. Không có nhu cầu mua thêm,qui.nguyen,Thị xã Từ Sơn,,Đường Nguyễn Văn Cừ,Bắc Ninh
21.035004999999998,106.06572249999999,AGRIBANK,934,13,,tung.doan1,Huyện Thuận Thành,,Đường Lạc Long Quân,Bắc Ninh
21.153080000000003,106.14035153846154,TCB,810,43,,nam.trinh,Huyện Quế Võ,,Đường Nguyễn Phong Sắc,Bắc Ninh
21.189610909090909,106.01270181818182,TCB,195,42,,cu.tran,Huyện Yên Phong,,Đường An Dương Vương,Bắc Ninh
21.13479,106.12742666666666,VTB,232,16,,,Thành phố Bắc Ninh,,Phố Nguyễn Trọng Mại,Bắc Ninh
21.117106153846152,105.95795615384615,VPB,745,26,,tien.nguyen30,Thị xã Từ Sơn,,Đường Trần Phú,Bắc Ninh
21.118629166666668,105.96534666666668,VCB,330,39,Đã có loa. Không có nhu cầu mua thêm,qui.nguyen,Thị xã Từ Sơn,,Đường Lê Quang Đạo,Bắc Ninh
21.188342857142864,106.06900214285713,TCB,7,40,,nhat.nguyen17,Thành phố Bắc Ninh,,Đường Hồ Ngọc Lân,Bắc Ninh
21.164825,106.0989825,VTB,189,30,ko thấy cửa hàng,hoang.than,Thành phố Bắc Ninh,,Đường D2,Bắc Ninh
21.15804142857143,105.92870571428571,VTB,956,10,,tien.nguyen30,Thị xã Từ Sơn,,Phố Đỗ Đại Uyên,Bắc Ninh
21.174825000000002,106.10863,VCB,98,18,,nam.trinh,Huyện Quế Võ,,Phố Trần Bình Trọng,Bắc Ninh
21.18237818181818,106.06784272727272,VTB,F67,27,,,Thành phố Bắc Ninh,,Đường Nguyễn Gia Thiều,Bắc Ninh
21.1945925,106.06850750000001,MBB,380,23,,,Thành phố Bắc Ninh,,Phố Huỳnh Tấn Phát,Bắc Ninh
21.153135,106.10318333333333,MBB,29,19,,,Thành phố Bắc Ninh,,Đường Đàm Văn Lễ,Bắc Ninh
21.159235882352938,106.12915058823532,TCB,342,52,,nam.trinh,Huyện Quế Võ,,Phố Dương Giai,Bắc Ninh
21.107793333333333,105.99584888888889,MSB,153,27,,qui.nguyen,Huyện Tiên Du,,Đường tỉnh 287,Bắc Ninh
21.180632000000003,106.065406,MBB,688,15,,,Thành phố Bắc Ninh,,Đường Nguyễn Gia Thiều,Bắc Ninh
21.035314999999997,106.0382375,TCB,787,23,,tung.doan1,Huyện Thuận Thành,,Đường Lạc Long Quân,Bắc Ninh
21.146616,106.11676333333332,MBB,888,59,khách đã có loa,nhat.nguyen17,Thành phố Bắc Ninh,,Ngõ 62 Đường Đa Cấu,Bắc Ninh
21.150104285714288,106.10963857142858,VTB,66,48,,hoang.than,Thành phố Bắc Ninh,,Đường Đàm Văn Lễ,Bắc Ninh
21.181750263157895,106.06694973684212,VTB,888,101,khách hàng đã có loa,nhat.nguyen17,Thành phố Bắc Ninh,,Phố Vũ Kiệt,Bắc Ninh
21.012013333333332,106.19337333333333,VTB,826,26,,tung.doan1,Huyện Lương Tài,,Đường Nguyễn Văn Cừ,Bắc Ninh
21.0929,105.94131999999999,TCB,263,32,,qui.nguyen,Thị xã Từ Sơn,,Đường Lý Huệ Tông,Bắc Ninh
21.11172875,105.9320375,BIDV,899,25,,tien.nguyen30,Thị xã Từ Sơn,,Đường Lý Thường Kiệt,Bắc Ninh
21.087595,105.9428525,VCCB,770,18,,tien.nguyen30,Thị xã Từ Sơn,,Đường Lý Huệ Tông,Bắc Ninh
21.154812857142858,106.03771714285715,NCB,201,18,,,Thành phố Bắc Ninh,,Phố Nguyễn Bá Lân,Bắc Ninh
21.152136,106.137198,MBB,906,22,,nam.trinh,Huyện Quế Võ,,Phố Nguyễn Đình Trạch,Bắc Ninh
21.159435,106.12422749999999,VCB,519,11,,nam.trinh,Huyện Quế Võ,,Phố Trần Bàn,Bắc Ninh
21.197329090909086,106.08960545454546,MBB,566,91,không tìm được,nhat.nguyen17,Thành phố Bắc Ninh,,Đường Trần Lựu,Bắc Ninh
21.167459166666667,106.066745,SHB,50,31,,manh.do1,Thành phố Bắc Ninh,,Đường Bình Than,Bắc Ninh
21.160684,106.127266,TCB,212,40,,nam.trinh,Huyện Quế Võ,,Phố Phan Kế Bính,Bắc Ninh
21.194232500000002,106.06510138888889,AGRIBANK,999,108,,nhat.nguyen17,Thành phố Bắc Ninh,,Đường Nguyễn Thị Minh Khai,Bắc Ninh
21.08965,105.96997999999999,VTB,964,17,,tien.nguyen30,Thị xã Từ Sơn,,Phố Sóc Tá,Bắc Ninh
21.158167142857142,106.12830428571428,VCB,729,29,,nam.trinh,Huyện Quế Võ,,Phố Nguyễn Ấu Miễn,Bắc Ninh
21.029738,106.01035,TCB,149,12,,tung.doan1,Huyện Thuận Thành,,Đường Dương Đức Hiền,Bắc Ninh
21.185539090909089,106.06797363636363,VPB,979,30,,nhat.nguyen17,Thành phố Bắc Ninh,,Đường Âu Cơ,Bắc Ninh
21.165115294117644,106.09999705882353,MBB,150,43,Mc đã sử sụng loa tingbox,hoang.than,Thành phố Bắc Ninh,,Đường D1,Bắc Ninh
21.135830689655172,106.12889758620689,VCB,834,63,Khách đã dùng loa ngân hàng. Ko quan tâm,hoang.than,Thành phố Bắc Ninh,,Phố Nguyễn Thuyên,Bắc Ninh
21.113326875,105.95486625000001,TCB,813,62,,qui.nguyen,Thị xã Từ Sơn,,Đường Lê Quang Đạo,Bắc Ninh
21.152475,106.10419125,TCB,822,26,,,Thành phố Bắc Ninh,,Đường Đàm Văn Lễ,Bắc Ninh
21.181905,106.06326,OCB,151,13,,,Thành phố Bắc Ninh,,Ngõ 22 Đường Rạp Hát,Bắc Ninh
21.188001111111113,106.06860777777779,TCB,144,19,,,Thành phố Bắc Ninh,,Đường Hồ Ngọc Lân,Bắc Ninh
21.089280000000002,105.971055,VCB,5,10,,tien.nguyen30,Thị xã Từ Sơn,,Phố Rích Gạo,Bắc Ninh
21.153054285714287,106.09881142857142,MBB,440,36,,nhat.nguyen17,Thành phố Bắc Ninh,,Đường Nguyễn Văn Bảng,Bắc Ninh
21.079912666666665,105.99359933333335,TCB,620,72,Dùng loa ngân hàng,tung.doan1,Huyện Tiên Du,,Đường Số 10,Bắc Ninh
21.16032,106.12539749999999,BIDV,103,19,,nam.trinh,Huyện Quế Võ,,Phố Nguyễn Bỉnh Trục,Bắc Ninh
21.150806,106.10446257142858,TCB,305,171,,hoang.than,Thành phố Bắc Ninh,,Đường Núi Bàn Cờ,Bắc Ninh
21.120124090909091,105.99193318181818,ACB,652,76,Đã có loa chuyển khoản,tung.doan1,Huyện Tiên Du,,Đường TS3,Bắc Ninh
21.152036470588232,106.10721058823529,NCB,301,57,Kh ko có nhu cầu sử dụng loa,lieu.truong,Thành phố Bắc Ninh,,Đường Nguyễn Đạt Tế,Bắc Ninh
21.175201818181819,106.05393090909092,MBB,804,44,,nhat.nguyen17,Thành phố Bắc Ninh,,Phố Nguyễn Đăng Sở,Bắc Ninh
21.13797,106.07508,VTB,693,11,,,Thành phố Bắc Ninh,,Phố Tiên Xá Núi,Bắc Ninh
21.145728333333334,106.113155,VTB,430,20,,,Thành phố Bắc Ninh,,Đường Sơn Đông,Bắc Ninh
21.127176,106.199999,TCB,17,33,a,nam.trinh,Huyện Quế Võ,,Quốc lộ 18,Bắc Ninh
21.166316666666667,106.09734666666667,MBB,806,16,,,Thành phố Bắc Ninh,,Đường Chu Mẫu,Bắc Ninh
21.187634,106.066272,TCB,552,14,,,Thành phố Bắc Ninh,,Đường Hồ Ngọc Lân,Bắc Ninh
21.174948333333333,106.07968222222223,TPB,123,37,,manh.do1,Thành phố Bắc Ninh,,Ngõ 139 Đường Trần Hưng Đạo,Bắc Ninh
21.11410875,105.994380625,MSB,535,65,,tung.doan1,Huyện Tiên Du,,Đường cao tốc Hà Nội - Bắc Giang,Bắc Ninh
21.045088,106.143614,VTB,F11,29,,tung.doan1,Huyện Gia Bình,,Đường tỉnh 284,Bắc Ninh
21.193550000000002,106.08712666666666,VTB,457,11,,,Thành phố Bắc Ninh,,Đường Hoàng Quốc Việt,Bắc Ninh
21.157233333333334,106.1288,MBB,130,23,,nam.trinh,Huyện Quế Võ,,Đường Trần Hưng Đạo,Bắc Ninh
21.170562857142855,106.09817285714284,TCB,828,14,,,Thành phố Bắc Ninh,,Đường Trần Hưng Đạo,Bắc Ninh
21.146695,106.11984,SHINHAN,6,25,,,Thành phố Bắc Ninh,,Ngõ 115 Đường Đa Cấu,Bắc Ninh
21.050371818181819,106.14457454545455,VTB,886,28,,tung.doan1,Huyện Gia Bình,,Quốc lộ 17,Bắc Ninh
21.204410909090907,105.99791909090908,BIDV,6,52,,cu.tran,Huyện Yên Phong,,Đường Yên Phong 5,Bắc Ninh
21.170875000000002,106.10802,VPB,114,16,,nam.trinh,Huyện Quế Võ,,Phố Tú Mỡ,Bắc Ninh
21.02888611111111,106.00948999999997,MBB,908,87,,tung.doan1,Huyện Thuận Thành,,Đường Dương Đức Hiền,Bắc Ninh
21.159832,106.007693,BIDV,621,28,,qui.nguyen,Huyện Tiên Du,,Đường tỉnh 270,Bắc Ninh
21.179186,106.068414,VTB,994,32,Khách đã dùng loa ngân hàng,manh.do1,Thành phố Bắc Ninh,,Đường Trần Hưng Đạo,Bắc Ninh
21.164708571428569,106.05265142857142,MBB,888,25,,,Thành phố Bắc Ninh,,Đường Võ Cường 103,Bắc Ninh
21.18609444444445,106.06780111111111,VCB,822,56,,nhat.nguyen17,Thành phố Bắc Ninh,,Đường Âu Cơ,Bắc Ninh
21.17886166666667,106.06080333333334,VTB,256,31,,manh.do1,Thành phố Bắc Ninh,,Đường Huyền Quang,Bắc Ninh
21.173899285714285,106.1080292857143,MBB,322,79,kh ko dùng loa,nam.trinh,Huyện Quế Võ,,Phố Tú Mỡ,Bắc Ninh
21.09169,106.03431666666665,AGRIBANK,809,11,,qui.nguyen,Huyện Tiên Du,,Đường tỉnh 270,Bắc Ninh
21.167120714285716,106.07143642857142,VTB,415,62,,manh.do1,Thành phố Bắc Ninh,,Phố Trần Nhật Duật,Bắc Ninh
21.118994375000003,105.96135499999998,SACOM,229,39,Đã có loa  không có nhu cầu mua thêm,qui.nguyen,Thị xã Từ Sơn,,Đường Trần Phú,Bắc Ninh
21.194584117647061,105.95416764705884,not defined or m2m,111,36,,cu.tran,Huyện Yên Phong,,Đường An Dương Vương,Bắc Ninh
21.194923809523811,105.95321095238096,TCB,559,46,,cu.tran,Huyện Yên Phong,,Đường An Dương Vương,Bắc Ninh
21.171843076923075,106.10802692307693,VCB,805,43,khách ko có nhu cầu dùng loa,nam.trinh,Huyện Quế Võ,,Phố Tú Mỡ,Bắc Ninh
21.195657999999998,105.953447,MBB,725,35,,cu.tran,Huyện Yên Phong,,Phố Ngô Phúc Tinh,Bắc Ninh
21.18068,106.065486,MBB,598,15,,,Thành phố Bắc Ninh,,Đường Nguyễn Gia Thiều,Bắc Ninh
21.135689999999997,105.988985,TCB,247,55,Hiệu thuốc chưa mở cửa. Quay lại sau,qui.nguyen,Thị xã Từ Sơn,,Đường Tiêu Tương,Bắc Ninh
21.19810076923077,105.94843538461539,BIDV,995,32,,cu.tran,Huyện Yên Phong,,Phố Nguyễn Khắc Khoan,Bắc Ninh
21.1719475,106.1076625,TCB,906,26,,nam.trinh,Huyện Quế Võ,,Phố Tú Mỡ,Bắc Ninh
21.15135,106.10332285714286,VTB,319,45,Mc hẹn lại,hoang.than,Thành phố Bắc Ninh,,Đường Núi Bàn Cờ,Bắc Ninh
21.122696666666666,105.92237,MBB,874,10,,tien.nguyen30,Thị xã Từ Sơn,,Đường Lý Thường Kiệt,Bắc Ninh
21.1697125,106.06340499999999,TCB,646,70,,manh.do1,Thành phố Bắc Ninh,,Đường Nguyễn Trãi,Bắc Ninh
21.14688625,106.109725,MBB,512,20,,,Thành phố Bắc Ninh,,Ngõ 106 Đường Đàm Văn Tiết,Bắc Ninh
21.170945000000003,106.062725,TCB,713,13,,,Thành phố Bắc Ninh,,Ngõ 314 Đường Nguyễn Trãi,Bắc Ninh
21.151196666666667,105.93118916666667,VTB,768,94,Đã dùng loa Vietinbank.chưa quan tâm quay lại chăm sóc sau,cu.tran,Thị xã Từ Sơn,,Đường Đàm Thận Huy,Bắc Ninh
21.03058,106.01344399999999,VTB,195,53,,tung.doan1,Huyện Thuận Thành,,Đường Lạc Long Quân,Bắc Ninh
21.1485575,106.0628125,TCB,580,56,Kh ko có nhu cầu sử dụng loa,lieu.truong,Thành phố Bắc Ninh,,Đường Ném Sơn,Bắc Ninh
21.14471125,106.11243375000001,VCB,434,76,,hoang.than,Thành phố Bắc Ninh,,Đường Đàm Văn Tiết,Bắc Ninh
21.119150909090909,105.95062909090909,BIDV,242,31,Đã có loa  không có nhu cầu mua thêm,qui.nguyen,Thị xã Từ Sơn,,Phố Trang Liệt 3,Bắc Ninh
21.1480375,106.070405,BIDV,626,16,,,Thành phố Bắc Ninh,,Đường Ném Thượng,Bắc Ninh
21.144098235294116,106.12949411764706,VPB,473,64,Mc đã lắp loa thông báo,hoang.than,Thành phố Bắc Ninh,,Đường N4-2,Bắc Ninh
21.103015000000003,105.962295,TCB,548,42,,qui.nguyen,Thị xã Từ Sơn,,Đường Lý Thái Tổ,Bắc Ninh
21.092725882352944,105.96734352941178,TCB,962,54,,qui.nguyen,Thị xã Từ Sơn,,Phố Sóc Cả,Bắc Ninh
21.110493125,105.95112812500001,TCB,801,37,,qui.nguyen,Thị xã Từ Sơn,,Phố Nguyễn Văn Trỗi,Bắc Ninh
21.08752,105.99741,BIDV,934,17,,qui.nguyen,Huyện Tiên Du,,ngõ Gạch,Bắc Ninh
21.08539272727273,105.94272636363637,MSB,449,30,,qui.nguyen,Thị xã Từ Sơn,,Đường Lý Huệ Tông,Bắc Ninh
21.205368888888888,105.99337333333334,VCB,909,34,,cu.tran,Huyện Yên Phong,,Đường Yên Phong 5,Bắc Ninh
21.085301904761902,105.98796476190478,MBB,996,82,,tung.doan1,Huyện Tiên Du,,Đường số 13,Bắc Ninh
21.151552000000002,106.139284,MBB,139,42,,nam.trinh,Huyện Quế Võ,,Phố Trần Hữu Tước,Bắc Ninh
21.14486909090909,105.95950181818182,BIDV,50,30,Khách đã có loa  ko có nhu cầu mua thêm,qui.nguyen,Thị xã Từ Sơn,,Đường Ngô Gia Tự,Bắc Ninh
21.14051,106.09940130434785,VTB,886,73,Đã sử dụng loa thông báo của bank,hoang.than,Thành phố Bắc Ninh,,Đường Đàm Văn Tiết,Bắc Ninh
21.204427619047621,105.99807142857142,VCB,23,69,,cu.tran,Huyện Yên Phong,,Đường Yên Phong 5,Bắc Ninh
21.160404999999997,106.12496785714285,VTB,862,53,kh dùng mpos đang không muốn dùng thêm,nam.trinh,Huyện Quế Võ,,Phố Nguyễn Bỉnh Trục,Bắc Ninh
21.089263333333335,105.96986333333334,SHB,446,24,,tien.nguyen30,Thị xã Từ Sơn,,Phố Sóc Tá,Bắc Ninh
21.144533333333335,106.12046333333333,VTB,755,15,,,Thành phố Bắc Ninh,,Đường Đa Cấu,Bắc Ninh
21.17157,106.0624775,TCB,764,11,,,Thành phố Bắc Ninh,,Đường Nguyễn Trãi,Bắc Ninh
21.113008124999997,105.95105937499999,SeABank,882,42,,qui.nguyen,Thị xã Từ Sơn,,Phố Nguyễn Văn Trỗi,Bắc Ninh
21.18003095238095,106.05798285714285,MBB,789,37,,nhat.nguyen17,Thành phố Bắc Ninh,,Đường Lê Phụng Hiểu,Bắc Ninh
21.187546666666666,106.06415,VTB,935,19,,,Thành phố Bắc Ninh,,Đường Rạp Hát,Bắc Ninh
21.152906,106.16509400000001,MBB,666,27,,nam.trinh,Huyện Quế Võ,,Đường Khuất Duy Tiến,Bắc Ninh
21.149006,106.063839,TCB,353,27,,,Thành phố Bắc Ninh,,Đường Ném Sơn,Bắc Ninh
21.191052272727269,106.07722500000001,VTB,886,55,kh đã có loa,nhat.nguyen17,Thành phố Bắc Ninh,,Đường Ngô Gia Tự,Bắc Ninh
21.143051176470582,105.93552058823531,MBB,294,51,,cu.tran,Thị xã Từ Sơn,,Phố Vĩnh Lại,Bắc Ninh
21.141133333333332,106.01524,TCB,127,15,,qui.nguyen,Huyện Tiên Du,,Ngõ 188 Đường Lý Thường Kiệt,Bắc Ninh
21.02902820512821,106.0098087179487,VIB,432,121,,tung.doan1,Huyện Thuận Thành,,Đường Dương Đức Hiền,Bắc Ninh
21.212023333333335,105.94627333333334,TCB,11,13,,nhat.nguyen17,Huyện Yên Phong,,Đường Nguyễn Chí Thanh,Bắc Ninh
21.17541,106.07095666666666,VTB,345,17,,,Thành phố Bắc Ninh,,Đường Văn Miếu,Bắc Ninh
21.140514545454543,106.01565090909091,TCB,79,20,,qui.nguyen,Huyện Tiên Du,,Đường Lý Thường Kiệt,Bắc Ninh
21.1488025,106.113475,BIDV,145,38,,hoang.than,Thành phố Bắc Ninh,,Đường Đặng Cung,Bắc Ninh
21.157145333333336,106.12954400000001,VTB,886,46,,nam.trinh,Huyện Quế Võ,,Đường Trần Hưng Đạo,Bắc Ninh
21.164901428571426,106.09949714285713,TCB,852,17,,,Thành phố Bắc Ninh,,Đường D2,Bắc Ninh
21.180608333333335,106.06534166666667,OCB,961,14,,,Thành phố Bắc Ninh,,Đường Nguyễn Gia Thiều,Bắc Ninh
21.114082857142858,105.97857142857143,MBB,h44,23,,tien.nguyen30,Thị xã Từ Sơn,,Đường TS3,Bắc Ninh
21.194926086956524,105.9548797826087,MBB,829,138,,cu.tran,Huyện Yên Phong,,Đường Văn Tiến Dũng,Bắc Ninh
21.172894999999997,106.079685,TCB,983,24,,,Thành phố Bắc Ninh,,Phố Nguyễn Phúc Xuyên,Bắc Ninh
21.150779999999997,106.16446,VTB,727,14,,nam.trinh,Huyện Quế Võ,,Đường Khuất Duy Tiến,Bắc Ninh
21.15363,106.09891,MBB,888,11,,,Thành phố Bắc Ninh,,Đường Núi Bàn Cờ,Bắc Ninh
21.16215,106.07633,MBB,390,22,,,Thành phố Bắc Ninh,,Đường Nguyễn Đăng Đạo,Bắc Ninh
21.161086666666666,106.12738666666667,VCB,884,34,kh dùng mpos kh có nhu cầu dùng thêm loa,nam.trinh,Huyện Quế Võ,,Phố Phan Kế Bính,Bắc Ninh
21.0913,105.978372,TCB,285,46,,qui.nguyen,Thị xã Từ Sơn,,Đường Trần Cố,Bắc Ninh
21.144312,105.941488,TCB,853,20,,tien.nguyen30,Thị xã Từ Sơn,,Đường Đàm Viết Kính,Bắc Ninh
21.14812684210526,106.11078973684212,MBB,39,156,,hoang.than,Thành phố Bắc Ninh,,Đường Thái Bảo,Bắc Ninh
21.1414105,106.11886200000001,VCB,751,99,,lieu.truong,Thành phố Bắc Ninh,,Đường Đông Dương,Bắc Ninh
21.141550000000002,106.11798,VTB,689,13,,,Thành phố Bắc Ninh,,Đường Sơn Đông,Bắc Ninh
21.173470000000002,106.10823333333333,MBB,652,16,,nam.trinh,Huyện Quế Võ,,Phố Tú Mỡ,Bắc Ninh
21.028896666666665,106.00939333333334,MBB,342,14,,tung.doan1,Huyện Thuận Thành,,Đường Dương Đức Hiền,Bắc Ninh
21.036578571428571,106.05272428571428,VCB,920,14,,tung.doan1,Huyện Thuận Thành,,Đường Lạc Long Quân,Bắc Ninh
21.162619375,106.126018125,VPB,325,61,,nam.trinh,Huyện Quế Võ,,Phố Giang Liễu 1,Bắc Ninh
21.157825333333335,106.12772700000001,MBB,206,109,,nam.trinh,Huyện Quế Võ,,Phố Nguyễn Ấu Miễn,Bắc Ninh
21.09126625,105.96826875,TCB,162,31,,qui.nguyen,Thị xã Từ Sơn,,Phố Doi Sóc,Bắc Ninh
21.119404444444445,105.96228407407405,SACOM,605,60,Đã có loa  không có nhu cầu mua thêm,qui.nguyen,Thị xã Từ Sơn,,Đường Trần Phú,Bắc Ninh
21.095928,106.034172,MBB,548,13,,qui.nguyen,Huyện Tiên Du,,Đường tỉnh 270,Bắc Ninh
21.20076375,105.95204625000001,MBB,918,35,,cu.tran,Huyện Yên Phong,,Đường Nguyễn Chí Thanh,Bắc Ninh
21.153028,106.09877999999999,VTB,160,20,,,Thành phố Bắc Ninh,,Đường Nguyễn Văn Bảng,Bắc Ninh
21.150205,106.109096,WOORIBANK,104,42,,hoang.than,Thành phố Bắc Ninh,,Đường Núi Bàn Cờ,Bắc Ninh
21.13631,105.988555,BIDV,48,41,Khách đã sử dụng loa ngân hàng BIDV từ khi mở tài khoản  không có nhu cầu mua thêm loa,qui.nguyen,Thị xã Từ Sơn,,Đường Tương Giang,Bắc Ninh
21.1517575,106.1032075,TPB,473,20,,,Thành phố Bắc Ninh,,Đường Núi Bàn Cờ,Bắc Ninh
21.116142,105.96971599999999,SACOM,102,20,,tien.nguyen30,Thị xã Từ Sơn,,Ngõ 7 Phố Yên Lã,Bắc Ninh
21.150565,106.135415,MBB,899,16,,nam.trinh,Huyện Quế Võ,,Phố Nguyễn Nghiêu Tư,Bắc Ninh
21.148708571428571,106.11277571428572,VTB,832,41,,hoang.than,Thành phố Bắc Ninh,,Đường Đàm Văn Lễ,Bắc Ninh
21.189864999999998,106.01350333333333,TCB,300,16,,nhat.nguyen17,Huyện Yên Phong,,Đường An Dương Vương,Bắc Ninh
21.170555,106.06194,VCB,592,12,,,Thành phố Bắc Ninh,,Ngõ 314 Đường Nguyễn Trãi,Bắc Ninh
21.120146315789469,105.95277578947366,MBB,304,87,,qui.nguyen,Thị xã Từ Sơn,,Phố Trang Hạ,Bắc Ninh
21.151349999999997,106.10347571428572,VCB,743,40,,hoang.than,Thành phố Bắc Ninh,,Đường Núi Bàn Cờ,Bắc Ninh
21.1706,105.92977,VTB,655,11,,nhat.nguyen17,Huyện Yên Phong,,Ngõ Ngay,Bắc Ninh
21.15027,106.10436999999999,TCB,20,13,,,Thành phố Bắc Ninh,,Đường Núi Bàn Cờ,Bắc Ninh
21.181100769230767,106.06628769230767,VCB,789,40,,nhat.nguyen17,Thành phố Bắc Ninh,,Đường Nguyễn Gia Thiều,Bắc Ninh
21.184001666666667,106.07989166666667,VTB,39,27,,,Thành phố Bắc Ninh,,Đường Hàn Thuyên,Bắc Ninh
21.187824,106.007052,TCB,482,17,,nhat.nguyen17,Huyện Yên Phong,,Đường cao tốc Nội Bài – Bắc Ninh,Bắc Ninh
21.115405555555558,105.95807333333333,MSB,802,32,Đã có loa  không có nhu cầu mua thêm,qui.nguyen,Thị xã Từ Sơn,,Phố Chợ Tre,Bắc Ninh
21.14776,105.97809,BIDV,248,10,,tien.nguyen30,Thị xã Từ Sơn,,Phố Xanh,Bắc Ninh
21.030420588235291,106.01295411764706,MBB,204,29,,tung.doan1,Huyện Thuận Thành,,Đường Lạc Long Quân,Bắc Ninh
21.17355625,106.1080775,VTB,971,47,kh dùng loa thần tài ko muốn dùng loa khác,nam.trinh,Huyện Quế Võ,,Phố Tú Mỡ,Bắc Ninh
21.148156875,105.93046093749999,TCB,830,99,,cu.tran,Thị xã Từ Sơn,,Đường Nguyễn Văn Cừ,Bắc Ninh
21.034893999999998,106.06726,TPB,287,13,,tung.doan1,Huyện Thuận Thành,,Đường Lạc Long Quân,Bắc Ninh
21.14543,106.11312590909091,VTB,S05,72,,hoang.than,Thành phố Bắc Ninh,,Đường Sơn Đông,Bắc Ninh
21.14957,106.10348,MBB,7ca,13,,,Thành phố Bắc Ninh,,Đường Nguyễn Ấu Miễn,Bắc Ninh
21.150915,106.1077075,TCB,528,36,,hoang.than,Thành phố Bắc Ninh,,Đường Đàm Văn Lễ,Bắc Ninh
21.10715,105.99596,BIDV,126,24,,qui.nguyen,Huyện Tiên Du,,Đường tỉnh 287,Bắc Ninh
21.133279285714284,105.9466792857143,TCB,307,59,Đã có loa techcombank cấp miễn phí  ko có nhu cầu mua thêm,qui.nguyen,Thị xã Từ Sơn,,Đường Nguyễn Văn Cừ,Bắc Ninh
21.101525833333334,105.938165,MBB,686,23,,tien.nguyen30,Thị xã Từ Sơn,,Đường Lý Huệ Tông,Bắc Ninh
21.151676538461537,106.13611076923077,TCB,291,111,,nam.trinh,Huyện Quế Võ,,Phố Nguyễn Đình Trạch,Bắc Ninh
21.150885,106.102765,VTB,168,25,,,Thành phố Bắc Ninh,,Đường Núi Bàn Cờ,Bắc Ninh
21.14004125,106.10494499999999,TCB,317,29,,,Thành phố Bắc Ninh,,Đường Đàm Văn Tiết,Bắc Ninh
21.1202375,105.98113000000001,VCB,621,16,,tien.nguyen30,Thị xã Từ Sơn,,Phố Lư Vĩnh Xuyên,Bắc Ninh
21.1402025,106.1051875,VCB,4,12,,,Thành phố Bắc Ninh,,Đường Đàm Văn Tiết,Bắc Ninh
21.153946666666666,106.16697166666665,VTB,692,14,,nam.trinh,Huyện Quế Võ,,Ngõ 90 Đường Khuất Duy Tiến,Bắc Ninh
21.199278571428572,105.94921785714286,TCB,753,38,,cu.tran,Huyện Yên Phong,,Phố Chu Văn Nghị,Bắc Ninh
21.194336666666665,106.12369333333334,MBB,932,10,,nam.trinh,Huyện Quế Võ,,Đường Quang Trung,Bắc Ninh
21.102708636363637,105.96284863636363,VCB,522,63,Đã có loa  không có nhu cầu mua thêm,qui.nguyen,Thị xã Từ Sơn,,Đường Lý Thái Tổ,Bắc Ninh
21.088736,105.96829,VTB,965,20,,tien.nguyen30,Thị xã Từ Sơn,,Phố Gạo Trên,Bắc Ninh
21.117043333333335,105.96435833333332,TCB,264,19,,tien.nguyen30,Thị xã Từ Sơn,,Phố Kim Lân,Bắc Ninh
21.148699999999998,106.113514,VCB,447,32,,hoang.than,Thành phố Bắc Ninh,,Đường Đặng Cung,Bắc Ninh
21.11306305555555,105.95046749999999,TPB,888,221,,qui.nguyen,Thị xã Từ Sơn,,Đường Trần Phú,Bắc Ninh
21.017504000000002,106.203258,VTB,916,12,,tung.doan1,Huyện Lương Tài,,Đường Vũ Giới,Bắc Ninh
21.147768888888887,106.11594666666666,TCB,688,13,,,Thành phố Bắc Ninh,,Đường Đa Cấu,Bắc Ninh
21.168907499999996,106.08143187499999,TCB,499,46,,manh.do1,Thành phố Bắc Ninh,,Ngõ 218 Đường Đại Phúc 35,Bắc Ninh
21.175233333333331,106.06176666666667,VPB,61,30,,manh.do1,Thành phố Bắc Ninh,,Phố Tô Hiệu,Bắc Ninh
21.114014,105.99421600000001,MSB,821,21,,qui.nguyen,Huyện Tiên Du,,Đường cao tốc Hà Nội - Bắc Giang,Bắc Ninh
21.173464000000003,106.10829000000001,MBB,579,32,kh ko muốn dùng loa,nam.trinh,Huyện Quế Võ,,Phố Tú Mỡ,Bắc Ninh
21.158175,106.12611142857142,SHB,8N9,55,,nam.trinh,Huyện Quế Võ,,Phố Nguyễn Đức Luận,Bắc Ninh
21.10407625,105.9625125,VTB,783,34,Đã có loa. Không có nhu cầu mua thêm,qui.nguyen,Thị xã Từ Sơn,,Phố Đại Đình,Bắc Ninh
21.145691666666668,106.11009666666666,VTB,833,25,,,Thành phố Bắc Ninh,,Đường Đàm Văn Tiết,Bắc Ninh
21.123516470588239,105.9553905882353,MBB,914,53,Đã có loa  không có nhu cầu mua thêm,qui.nguyen,Thị xã Từ Sơn,,Đường Trang Liệt,Bắc Ninh
21.029478888888885,106.00957055555557,MBB,868,42,,tung.doan1,Huyện Thuận Thành,,Đường Dương Đức Hiền,Bắc Ninh
21.153455,106.13615999999999,VTB,859,18,,nam.trinh,Huyện Quế Võ,,Ngõ 30 Phố Nguyễn Đình Trạch,Bắc Ninh
21.196105,105.95078416666668,MBB,198,22,,nhat.nguyen17,Huyện Yên Phong,,Đường Nguyễn Chí Thanh,Bắc Ninh
21.09024625,105.97192083333333,VTB,888,85,,qui.nguyen,Thị xã Từ Sơn,,Phố Rích Gạo,Bắc Ninh
21.116166666666668,105.96064111111112,VTB,228,36,Đã có loa. Không có nhu cầu mua thêm,qui.nguyen,Thị xã Từ Sơn,,Đường Lê Quang Đạo,Bắc Ninh
21.153007499999998,106.10334875,MBB,967,38,Ko quan tâm,hoang.than,Thành phố Bắc Ninh,,Đường Đàm Văn Lễ,Bắc Ninh
21.145345000000002,106.11317250000002,VTB,4,35,,hoang.than,Thành phố Bắc Ninh,,Đường Sơn Đông,Bắc Ninh
21.158678125,106.067849375,PVCOM,686,58,,manh.do1,Thành phố Bắc Ninh,,Đường Nguyễn Trãi,Bắc Ninh
21.151365714285713,106.10104571428572,BIDV,586,21,,,Thành phố Bắc Ninh,,Đường Nguyễn Ấu Miễn,Bắc Ninh
21.136323750000003,106.11075000000001,BIDV,258,39,,lieu.truong,Thành phố Bắc Ninh,,Đường Sơn Nam,Bắc Ninh
21.114244,105.994438,MBB,527,25,,qui.nguyen,Huyện Tiên Du,,Đường cao tốc Hà Nội - Bắc Giang,Bắc Ninh
21.107735,105.94156666666667,MBB,930,15,,tien.nguyen30,Thị xã Từ Sơn,,Đường Trần Phú,Bắc Ninh
21.1763475,106.07177499999999,TCB,492,19,,,Thành phố Bắc Ninh,,Đường Nguyễn Đăng Đạo,Bắc Ninh
21.1818175,106.0552075,TCB,188,14,,,Thành phố Bắc Ninh,,Đường Lê Phụng Hiểu,Bắc Ninh
21.152100625000003,106.159255625,VTB,F11,57,,nam.trinh,Huyện Quế Võ,,Đường Trần Hưng Đạo,Bắc Ninh
21.1448725,106.12062999999999,VPB,651,23,,,Thành phố Bắc Ninh,,Đường Đa Cấu,Bắc Ninh
21.204366,106.000318,VTB,S01,14,,nhat.nguyen17,Huyện Yên Phong,,Đường Yên Phong 5,Bắc Ninh
21.177368888888893,106.07018,MBB,712,26,,,Thành phố Bắc Ninh,,Đường Lý Thái Tổ,Bắc Ninh
21.173434,106.108418,MBB,449,33,kh dùng loa Mb,nam.trinh,Huyện Quế Võ,,Phố Tú Mỡ,Bắc Ninh
21.201746875,106.100013125,VPB,536,45,khách hàng không dùng loa,nhat.nguyen17,Thành phố Bắc Ninh,,Đường Như Nguyệt,Bắc Ninh
21.142613888888885,106.10688388888887,TCB,684,55,Mc đã sử dụng loa của ngân hàng thấy đã tiện lợi ko có nhu cầu thêm,hoang.than,Thành phố Bắc Ninh,,Đường Đàm Văn Tiết,Bắc Ninh
21.092200000000002,105.97725333333334,OCB,178,25,,tien.nguyen30,Thị xã Từ Sơn,,Đường Trần Cố,Bắc Ninh
21.032648076923081,106.03076346153846,BIDV,849,100,,tung.doan1,Huyện Thuận Thành,,Đường Lạc Long Quân,Bắc Ninh
21.205938333333336,105.981065,VCB,439,61,Chưa dùng loa.nhưng cũng ko lắp,cu.tran,Huyện Yên Phong,,Đường Yên Phong 5,Bắc Ninh
21.180159999999997,106.06606,TPB,528,35,Chủ đi vắng không có tại cửa hàng,manh.do1,Thành phố Bắc Ninh,,Đường Trần Hưng Đạo,Bắc Ninh
21.195739999999994,105.95333653846154,AGRIBANK,0A6,48,,cu.tran,Huyện Yên Phong,,Phố Nguyễn Chí Công,Bắc Ninh
21.193994285714286,106.06260857142858,VTB,831,26,,,Thành phố Bắc Ninh,,Đường Tô Hiến Thành,Bắc Ninh
21.115016666666669,105.95796,VTB,644,12,,tien.nguyen30,Thị xã Từ Sơn,,Phố Chợ Tre,Bắc Ninh
21.140433333333331,106.12355666666666,BIDV,509,15,,,Thành phố Bắc Ninh,,Ngõ 36,Bắc Ninh
21.11507,105.97693333333333,BIDV,623,10,,tien.nguyen30,Thị xã Từ Sơn,,Đường Lý Tự Trọng,Bắc Ninh
21.153942222222224,106.06975222222223,VCB,458,40,,manh.do1,Thành phố Bắc Ninh,,Đường Nguyễn Trãi,Bắc Ninh
21.16867125,106.06804125,MBB,822,23,,,Thành phố Bắc Ninh,,Đường Bình Than,Bắc Ninh
21.165244375,106.05131999999999,MBB,348,34,không tìm thấy điểm,nhat.nguyen17,Thành phố Bắc Ninh,,Phố Nguyễn Quang Bật,Bắc Ninh
21.157311,106.15146,TCB,269,57,,nam.trinh,Huyện Quế Võ,,Đường Quang Trung,Bắc Ninh
21.13012333333333,105.96605166666667,VTB,S01,21,,tien.nguyen30,Thị xã Từ Sơn,,Phố Đồng Cẩm,Bắc Ninh
21.181506,106.06357,VTB,666,25,,,Thành phố Bắc Ninh,,Đường Trần Hưng Đạo,Bắc Ninh
21.149945,106.06459600000001,MBB,6,50,Kh ko có nhu cầu dùng loa,lieu.truong,Thành phố Bắc Ninh,,Đường Ném Sơn,Bắc Ninh
21.15137,106.10349,VTB,312,12,,,Thành phố Bắc Ninh,,Đường Núi Bàn Cờ,Bắc Ninh
21.187612142857141,106.06751785714285,ACB,745,38,,nhat.nguyen17,Thành phố Bắc Ninh,,Đường Hồ Ngọc Lân,Bắc Ninh
21.027440909090913,106.21813363636363,VTB,F21,18,,tung.doan1,Huyện Lương Tài,,Đường Hàn Thuyên,Bắc Ninh
21.191594999999996,106.0867525,MBB,326,51,khách hàng đã có loa MB 
từ chối tư vấn,nhat.nguyen17,Thành phố Bắc Ninh,,Đường Đấu Mã,Bắc Ninh
21.200879999999998,106.00057000000001,VCB,354,12,,nhat.nguyen17,Huyện Yên Phong,,Đường YP6,Bắc Ninh
21.152325555555556,106.13756222222223,ACB,738,54,,nam.trinh,Huyện Quế Võ,,Phố Nguyễn Đình Trạch,Bắc Ninh
21.136948461538459,105.94168846153846,VTB,272,44,,cu.tran,Thị xã Từ Sơn,,Đường Nguyễn Văn Cừ,Bắc Ninh
21.1478075,106.115765,MBB,222,40,,hoang.than,Thành phố Bắc Ninh,,Đường Đa Cấu,Bắc Ninh
21.181952258064516,106.06705419354837,VTB,668,80,khách hàng đã có loa,nhat.nguyen17,Thành phố Bắc Ninh,,Đường Nguyễn Gia Thiều,Bắc Ninh
21.173321428571427,106.06159285714287,MBB,740,13,,,Thành phố Bắc Ninh,,Đường Nguyễn Trãi,Bắc Ninh
21.188349999999996,106.06898333333335,VCB,826,101,,nhat.nguyen17,Thành phố Bắc Ninh,,Đường Hồ Ngọc Lân,Bắc Ninh
21.17005142857143,106.10806428571428,MBB,182,30,,nam.trinh,Huyện Quế Võ,,Phố Tú Mỡ,Bắc Ninh
21.1473225,106.0670625,VCB,382,32,Kh ko có nhu cầu dùng loa,lieu.truong,Thành phố Bắc Ninh,,Đường Ném Thượng,Bắc Ninh
21.09168625,105.96048625,VTB,242,32,,qui.nguyen,Thị xã Từ Sơn,,Trạm dừng nghỉ Từ Sơn,Bắc Ninh
21.162088,106.00512599999999,TCB,744,14,,qui.nguyen,Huyện Tiên Du,,Đường tỉnh 270,Bắc Ninh
21.198731333333338,105.927071,MBB,510,112,Khách đã dùng loa mb.quay lại chăm sóc sau 1 tuần,cu.tran,Huyện Yên Phong,,Đường tỉnh 286,Bắc Ninh
21.158828571428572,105.92889714285714,VCB,507,20,,tien.nguyen30,Thị xã Từ Sơn,,Đường Đàm Thận Huy,Bắc Ninh
21.167025714285714,105.9294942857143,MBB,810,19,,nhat.nguyen17,Huyện Yên Phong,,Đường tỉnh 277,Bắc Ninh
21.149901111111109,106.10522666666667,MBB,358,56,,hoang.than,Thành phố Bắc Ninh,,Đường Núi Bàn Cờ,Bắc Ninh
21.111045,105.95874285714287,TCB,498,103,Đã có loa  không có nhu cầu mua thêm,qui.nguyen,Thị xã Từ Sơn,,Đường Lý Thái Tổ,Bắc Ninh
21.1522,106.1355,VCB,321,18,,nam.trinh,Huyện Quế Võ,,Phố Nguyễn Nghiêu Tư,Bắc Ninh
21.140085,106.0153375,MBB,63,15,,qui.nguyen,Huyện Tiên Du,,Đường Lý Thường Kiệt,Bắc Ninh
21.187638,106.061092,TCB,662,27,,,Thành phố Bắc Ninh,,Đường Hồ Ngọc Lân,Bắc Ninh
21.048378333333336,106.02888333333334,AGRIBANK,994,22,,tung.doan1,Huyện Thuận Thành,,Đường Tô Quyền,Bắc Ninh
21.185298823529415,106.07082882352941,not defined or m2m,660,40,,nhat.nguyen17,Thành phố Bắc Ninh,,Phố Lê Quý Đôn,Bắc Ninh
21.14609,106.11664,TCB,15,17,,,Thành phố Bắc Ninh,,Ngõ 96 Đường Đa Cấu,Bắc Ninh
21.153233333333333,106.10032666666667,MBB,244,24,,,Thành phố Bắc Ninh,,Đường Núi Bàn Cờ,Bắc Ninh
21.140594999999998,106.056265,VTB,S01,10,,,Thành phố Bắc Ninh,,Đường Nguyễn Thủ Tiệp,Bắc Ninh
21.196171666666668,106.08486666666667,VTB,S01,20,,,Thành phố Bắc Ninh,,Đường Lý Thường Kiệt,Bắc Ninh
21.197728750000003,105.95182750000001,MBB,548,30,,cu.tran,Huyện Yên Phong,,Phố Ngô Ngọc,Bắc Ninh
21.093418571428572,105.97553714285715,MBB,966,25,,tien.nguyen30,Thị xã Từ Sơn,,Đường Trần Cố,Bắc Ninh
21.157557222222223,106.12437,TCB,686,70,,nam.trinh,Huyện Quế Võ,,Đường Trần Hưng Đạo,Bắc Ninh
21.070324,106.15865,MBB,125,23,,tung.doan1,Huyện Gia Bình,,Đường tỉnh 280,Bắc Ninh
21.11603666666667,105.99434,MBB,998,14,,qui.nguyen,Huyện Tiên Du,,Đường cao tốc Hà Nội - Bắc Giang,Bắc Ninh
21.053746,106.174116,MBB,230,12,,tung.doan1,Huyện Gia Bình,,Đường Lệ Chi Viên,Bắc Ninh
21.028850454545456,106.00941954545453,BIDV,737,95,,tung.doan1,Huyện Thuận Thành,,Đường Dương Đức Hiền,Bắc Ninh
21.16042,106.12716,SACOM,148,11,,nam.trinh,Huyện Quế Võ,,Phố Phan Kế Bính,Bắc Ninh
21.02898514423077,106.00935028846156,TCB,937,740,,tung.doan1,Huyện Thuận Thành,,Đường Dương Đức Hiền,Bắc Ninh
21.180776,106.06424000000001,TCB,388,17,,,Thành phố Bắc Ninh,,Phố Hàng Mã,Bắc Ninh
21.126897500000002,106.20066750000001,MBB,266,14,,nam.trinh,Huyện Quế Võ,,Quốc lộ 18,Bắc Ninh
21.142870909090909,106.09438,TCB,755,18,,,Thành phố Bắc Ninh,,Đường Đàm Văn Tiết,Bắc Ninh
21.188064285714283,105.95504714285715,MBB,326,24,,nhat.nguyen17,Huyện Yên Phong,,Đường Văn Tiến Dũng,Bắc Ninh
21.142085,106.07561,BIDV,766,13,,,Thành phố Bắc Ninh,,Phố Tiên Xá Làng,Bắc Ninh
21.151766,106.1387,MBB,355,13,,nam.trinh,Huyện Quế Võ,,Phố Trần Hữu Tước,Bắc Ninh
21.171705,106.07716125,MBB,250,23,,,Thành phố Bắc Ninh,,Phố Nguyễn Đức Ánh,Bắc Ninh
21.195074,106.12258666666668,TCB,57,49,,nam.trinh,Huyện Quế Võ,,Đường Như Nguyệt,Bắc Ninh
21.048813333333335,106.14253666666666,BIDV,915,12,,tung.doan1,Huyện Gia Bình,,Đường tỉnh 284,Bắc Ninh
21.124353,105.97185499999999,MBB,224,35,Căng tin bệnh viện  đã có loa  ko sử dụng loa mình,qui.nguyen,Thị xã Từ Sơn,,Đường Minh Khai,Bắc Ninh
21.204394615384619,105.99799923076924,VCB,762,77,,cu.tran,Huyện Yên Phong,,Đường Yên Phong 5,Bắc Ninh
21.1547025,106.25323437500002,AGRIBANK,56B,45,,nam.trinh,Huyện Quế Võ,,Đường đê Hữu Sông Cầu,Bắc Ninh
21.138316666666661,105.93990916666669,BIDV,0,57,,cu.tran,Thị xã Từ Sơn,,Đường Nguyễn Văn Cừ,Bắc Ninh
21.15042125,106.16642875,MSB,54,23,,nam.trinh,Huyện Quế Võ,,Ngõ 18 Đường Khuất Duy Tiến,Bắc Ninh
21.1461959375,106.1133025,MBB,367,64,,hoang.than,Thành phố Bắc Ninh,,Đường Sơn Đông,Bắc Ninh
21.17262,106.06202294117648,SHINHAN,904,39,,manh.do1,Thành phố Bắc Ninh,,Đường Nguyễn Trãi,Bắc Ninh
21.149676666666668,106.15442666666667,VCB,667,16,,nam.trinh,Huyện Quế Võ,,Phố Bạch Thái Bưởi,Bắc Ninh
21.03973625,106.03738625000001,VTB,667,21,,tung.doan1,Huyện Thuận Thành,,Đường Tô Quyền,Bắc Ninh
21.1274,106.20091500000001,VCB,275,10,,nam.trinh,Huyện Quế Võ,,Quốc lộ 18,Bắc Ninh
21.1809655,106.0658775,SACOM,701,117,,nhat.nguyen17,Thành phố Bắc Ninh,,Đường Nguyễn Gia Thiều,Bắc Ninh
21.148917368421056,105.95796842105263,VTB,321,86,Đã có loa,qui.nguyen,Thị xã Từ Sơn,,Đường Ngô Gia Tự,Bắc Ninh
21.107066666666668,106.03995083333334,TCB,932,43,,tung.doan1,Huyện Tiên Du,,Đường tỉnh 291,Bắc Ninh
21.084985555555559,105.98830185185186,MBB,880,74,Dùng loa ngân hàng,tung.doan1,Huyện Tiên Du,,Đường số 13,Bắc Ninh
21.195348571428571,105.95225571428571,MBB,87,46,,cu.tran,Huyện Yên Phong,,Đường An Dương Vương,Bắc Ninh
21.147088571428572,106.06741857142858,TPB,711,32,Không tìm thấy cửa hàng,lieu.truong,Thành phố Bắc Ninh,,Đường Ném Thượng,Bắc Ninh
21.13181,105.988762,TCB,186,19,,tien.nguyen30,Thị xã Từ Sơn,,Đường Minh Khai,Bắc Ninh
21.145791521739131,106.10993543478261,MBB,976,162,,hoang.than,Thành phố Bắc Ninh,,Đường Đàm Văn Tiết,Bắc Ninh
21.15846125,106.13129624999999,MBB,138,25,,nam.trinh,Huyện Quế Võ,,Phố Thân Duy Nhạc,Bắc Ninh
21.005830000000003,105.99970499999999,MBB,832,32,,tung.doan1,Huyện Thuận Thành,,Ngõ 234 đường Dương Quang,Bắc Ninh
21.188301052631576,106.08470315789474,MBB,354,38,khách hàng đang dùng Mb k muốn tham khảo loa khác,nhat.nguyen17,Thành phố Bắc Ninh,,Ngõ 22 Đường Vũ Ninh,Bắc Ninh
21.0845525,105.942835,VTB,S01,15,,tien.nguyen30,Thị xã Từ Sơn,,Đường Lý Huệ Tông,Bắc Ninh
21.11451,105.95427,HDB,991,22,,tien.nguyen30,Thị xã Từ Sơn,,Phố Tô Hiến Thành,Bắc Ninh
21.189384,106.006404,VCB,320,11,,nhat.nguyen17,Huyện Yên Phong,,Đường An Dương Vương,Bắc Ninh
21.090636,105.966744,VTB,S01,24,,tien.nguyen30,Thị xã Từ Sơn,,Đường Lý Thái Tổ,Bắc Ninh
21.159570624999997,106.12769125,MBB,124,67,kh dùng loa mb ko muốn dùng loa khác,nam.trinh,Huyện Quế Võ,,Phố Nguyễn Bỉnh Trục,Bắc Ninh
21.135069444444447,106.12714333333334,TCB,680,109,Mc đã dùng loa bank,hoang.than,Thành phố Bắc Ninh,,Phố Nguyễn Thuyên,Bắc Ninh
21.138513333333336,105.93958199999999,TCB,958,60,,cu.tran,Thị xã Từ Sơn,,Đường Nguyễn Văn Cừ,Bắc Ninh
21.160055,106.127075,TCB,10,16,,nam.trinh,Huyện Quế Võ,,Phố Phan Kế Bính,Bắc Ninh
21.084722307692306,105.98974769230769,MBB,518,40,Không tìm thấy cửa hàng,tung.doan1,Huyện Tiên Du,,Đường số 13,Bắc Ninh
21.175587777777782,106.07112333333333,TCB,702,49,khách đã có loa,nhat.nguyen17,Thành phố Bắc Ninh,,Phố Vũ Miên,Bắc Ninh
21.14358,106.09251,VTB,520,14,,,Thành phố Bắc Ninh,,Đường Đàm Văn Tiết,Bắc Ninh
21.1686225,106.056115,MBB,999,17,,,Thành phố Bắc Ninh,,Đường Lê Thái Tổ,Bắc Ninh
21.037574444444445,106.08703333333332,AGRIBANK,5D8,22,,tung.doan1,Huyện Thuận Thành,,Đường Lạc Long Quân,Bắc Ninh
21.1858175,106.06911374999999,MBB,333,33,,nhat.nguyen17,Thành phố Bắc Ninh,,Đường Ngô Gia Tự,Bắc Ninh
21.092834999999997,105.967715,TCB,192,29,,tien.nguyen30,Thị xã Từ Sơn,,Phố Sóc Cả,Bắc Ninh
21.189883333333334,106.00459000000001,ABB,29,28,,nhat.nguyen17,Huyện Yên Phong,,Cầu Đông Yên,Bắc Ninh
21.151215714285712,106.1504757142857,VCB,825,34,kh ko có nhu cầu,nam.trinh,Huyện Quế Võ,,Đường Nguyễn Phong Sắc,Bắc Ninh
21.088316111111116,105.96971888888889,BIDV,901,110,,qui.nguyen,Thị xã Từ Sơn,,Phố Rích Gạo,Bắc Ninh
21.189616470588234,106.08330647058823,TCB,768,33,kh đã có loa,nhat.nguyen17,Thành phố Bắc Ninh,,Đường Vũ Ninh,Bắc Ninh
21.146645,106.110865,MBB,998,12,,,Thành phố Bắc Ninh,,Đường Thái Bảo,Bắc Ninh
21.15161,106.1027675,VTB,666,32,Đã dùng loa,hoang.than,Thành phố Bắc Ninh,,Đường Núi Bàn Cờ,Bắc Ninh
21.080379230769232,105.96796538461538,VCCB,813,35,,qui.nguyen,Thị xã Từ Sơn,,Đường Lý Thái Tổ,Bắc Ninh
21.169836363636364,106.10787090909089,MBB,774,35,Kh dùng loa MB ko muốn dùng loa khác,nam.trinh,Huyện Quế Võ,,Phố Tú Mỡ,Bắc Ninh
21.147414615384616,106.06914769230769,TPB,888,37,,lieu.truong,Thành phố Bắc Ninh,,Đường Ném Thượng,Bắc Ninh
21.14906,106.13529,AGRIBANK,337,11,,nam.trinh,Huyện Quế Võ,,Phố Nguyễn Nghiêu Tư,Bắc Ninh
21.150135,106.107905,VCB,936,20,,,Thành phố Bắc Ninh,,Đường Núi Bàn Cờ,Bắc Ninh
21.02910142857143,106.01021285714286,MBB,658,33,,tung.doan1,Huyện Thuận Thành,,Đường Dương Đức Hiền,Bắc Ninh
21.151773636363636,106.13863636363637,MSB,912,46,,nam.trinh,Huyện Quế Võ,,Phố Trần Hữu Tước,Bắc Ninh
21.1842275,106.070085,VCB,381,10,,,Thành phố Bắc Ninh,,Phố Vạn Hạnh,Bắc Ninh
21.197784285714285,105.95181619047618,MBB,300,68,,cu.tran,Huyện Yên Phong,,Phố Ngô Ngọc,Bắc Ninh
21.16066,106.12697,MBB,36,15,,nam.trinh,Huyện Quế Võ,,Phố Phan Kế Bính,Bắc Ninh
21.181856666666665,106.01841333333334,VTB,196,39,,cu.tran,Huyện Yên Phong,,Trạm dừng nghỉ Kinh Bắc,Bắc Ninh
21.134786666666667,106.12743999999999,VTB,948,11,,,Thành phố Bắc Ninh,,Phố Nguyễn Trọng Mại,Bắc Ninh
21.13583,106.00597,VTB,469,14,,qui.nguyen,Huyện Tiên Du,,Đường Lý Thường Kiệt,Bắc Ninh
21.05942,106.08775285714286,MBB,275,46,Lắp thành công bán kính 100m,tung.doan1,Huyện Thuận Thành,,Đường Vương Văn Trà,Bắc Ninh
21.152659333333336,106.15082533333334,TCB,777,65,kh dùng loa tech ko muốn dùng thêm loa,nam.trinh,Huyện Quế Võ,,Ngõ 928 Đường Quang Trung,Bắc Ninh
21.176512857142857,106.07185071428572,MBB,507,34,khách đang dùng loa k tham khảo loa mới,nhat.nguyen17,Thành phố Bắc Ninh,,Đường Nguyễn Đăng Đạo,Bắc Ninh
21.150020555555553,106.124205,VCB,476,266,Mc đã sùng loa ngân hàng,hoang.than,Thành phố Bắc Ninh,,Đường D2-3,Bắc Ninh
21.08938333333333,105.98667333333334,MBB,682,24,,qui.nguyen,Huyện Tiên Du,,Đường số 8,Bắc Ninh
21.149211428571434,106.10434,TCB,471,31,,lieu.truong,Thành phố Bắc Ninh,,Đường Nguyễn Ấu Miễn,Bắc Ninh
21.101979999999998,106.00574999999999,TCB,371,10,,qui.nguyen,Huyện Tiên Du,,Đường tỉnh 287,Bắc Ninh
21.087414000000003,105.99713700000001,VCB,807,30,,tung.doan1,Huyện Tiên Du,,ngõ Gạch,Bắc Ninh
21.122158749999997,105.97990625,VCB,450,26,,tien.nguyen30,Thị xã Từ Sơn,,Phố Tam Lư 1,Bắc Ninh
21.16498,106.0995,VCB,384,12,,,Thành phố Bắc Ninh,,Đường D2,Bắc Ninh
21.181475,106.068955,VIB,963,10,,,Thành phố Bắc Ninh,,Phố Nguyễn Bỉnh Quân,Bắc Ninh
21.141444545454544,106.09716636363636,TCB,368,25,,,Thành phố Bắc Ninh,,Đường Đàm Văn Tiết,Bắc Ninh
21.036734285714289,106.04835285714286,VTB,162,18,,tung.doan1,Huyện Thuận Thành,,Đường Lạc Long Quân,Bắc Ninh
21.206037499999997,105.988415,MBB,860,42,,cu.tran,Huyện Yên Phong,,Đường Yên Phong 5,Bắc Ninh
21.1471875,106.11398,VCB,248,24,,,Thành phố Bắc Ninh,,Đường Sơn Đông,Bắc Ninh
21.144705882352941,106.11374411764706,VTB,984,44,,hoang.than,Thành phố Bắc Ninh,,Đường Sơn Đông,Bắc Ninh
21.152001111111112,106.13792222222222,TCB,761,22,,nam.trinh,Huyện Quế Võ,,Phố Trần Hữu Tước,Bắc Ninh
21.201517222222222,106.1009511111111,VTB,639,69,khách hàng đã có loa,nhat.nguyen17,Thành phố Bắc Ninh,,Đường Như Nguyệt,Bắc Ninh
21.032023333333331,106.02261999999999,MBB,789,15,,tung.doan1,Huyện Thuận Thành,,Đường Lạc Long Quân,Bắc Ninh
21.132426,106.07644,MBB,384,46,,lieu.truong,Thành phố Bắc Ninh,,Đường Nguyễn Đoan Trung,Bắc Ninh
21.118028999999996,105.960037,VTB,811,24,,tien.nguyen30,Thị xã Từ Sơn,,Phố Chợ Gạo,Bắc Ninh
21.029393333333335,106.00890416666667,MBB,673,32,,tung.doan1,Huyện Thuận Thành,,Đường Dương Đức Hiền,Bắc Ninh
21.1487525,106.113535,VTB,225,32,,hoang.than,Thành phố Bắc Ninh,,Đường Đặng Cung,Bắc Ninh
21.190623333333335,106.05439666666666,TCB,749,32,đã được tech tặng loa,nhat.nguyen17,Thành phố Bắc Ninh,,Đường Thiên Đức,Bắc Ninh
21.161856190476183,105.92894428571428,BIDV,281,32,Đã dùng loa tingbox.chưa quan tâm quay lại chăm sóc sau,cu.tran,Thị xã Từ Sơn,,Đường Đàm Thận Huy,Bắc Ninh
21.028706666666668,106.00942833333335,VTB,248,61,,tung.doan1,Huyện Thuận Thành,,Đường Dương Đức Hiền,Bắc Ninh
21.140163636363631,106.01600181818182,VCB,671,102,Đã có loa chuyển khoản,tung.doan1,Huyện Tiên Du,,Đường Tiên Du,Bắc Ninh
21.106292857142858,105.93973714285714,TPB,999,17,,tien.nguyen30,Thị xã Từ Sơn,,Đường Trần Phú,Bắc Ninh
21.052174444444447,106.17457222222222,VTB,591,39,Cửa hàng đã có loa.Không gặp chủ,tung.doan1,Huyện Gia Bình,,Đường Lệ Chi Viên,Bắc Ninh
21.204265238095239,106.00026761904762,TCB,39,84,,cu.tran,Huyện Yên Phong,,Đường Yên Phong 5,Bắc Ninh
21.14016,106.1118175,TCB,994,39,khách đã được tech tặng loa,nhat.nguyen17,Thành phố Bắc Ninh,,Đường Mai Trọng Hoà,Bắc Ninh
21.201541666666664,106.09579166666666,VTB,483,13,,,Thành phố Bắc Ninh,,Đường Hoàng Quốc Việt,Bắc Ninh
21.173407272727271,106.10905181818183,BIDV,555,45,,nam.trinh,Huyện Quế Võ,,Ngõ 55 Phố Trần Bình Trọng,Bắc Ninh
21.17061,106.07397222222222,VCCB,164,33,,manh.do1,Thành phố Bắc Ninh,,Đường Bình Than,Bắc Ninh
21.030459999999998,106.01348999999999,VTB,945,13,,tung.doan1,Huyện Thuận Thành,,Đường Lạc Long Quân,Bắc Ninh
21.106648333333336,105.99811166666667,MBB,999,32,,tung.doan1,Huyện Tiên Du,,Đường tỉnh 287,Bắc Ninh
21.13789,106.07638142857144,BIDV,999,15,,,Thành phố Bắc Ninh,,Đường Nguyễn Trãi,Bắc Ninh
21.139759375,105.93773750000001,VTB,364,38,,cu.tran,Thị xã Từ Sơn,,Đường Nguyễn Văn Cừ,Bắc Ninh
21.1459575,106.1133,TCB,424,19,,,Thành phố Bắc Ninh,,Đường Sơn Đông,Bắc Ninh
21.181945263157896,106.06684578947367,VPB,201,37,khách hàng lớn tuổi không có nhu cầu dùng loa,nhat.nguyen17,Thành phố Bắc Ninh,,Đường Nguyễn Gia Thiều,Bắc Ninh
21.144786,106.113616,TCB,891,35,,hoang.than,Thành phố Bắc Ninh,,Đường Sơn Đông,Bắc Ninh
21.018740833333336,106.19879166666666,TCB,761,41,MC đang sử dụng loa ngân hàng,tung.doan1,Huyện Lương Tài,,Đường Phá Lãng,Bắc Ninh
21.134740400000002,106.07924520000003,TCB,964,69,,manh.do1,Thành phố Bắc Ninh,,Đường Nguyễn Trãi,Bắc Ninh
21.15095,106.10712,VTB,517,52,,hoang.than,Thành phố Bắc Ninh,,Đường Đàm Văn Lễ,Bắc Ninh
21.173978333333334,106.10802444444444,MBB,251,73,KH DÙNG LOA MB ko muốn dùng loa khác,nam.trinh,Huyện Quế Võ,,Phố Tú Mỡ,Bắc Ninh
21.146805555555552,106.11740722222221,MBB,90,119,,hoang.than,Thành phố Bắc Ninh,,Ngõ 96 Đường Đa Cấu,Bắc Ninh
21.11657,105.96108799999999,MBB,126,22,,tien.nguyen30,Thị xã Từ Sơn,,Phố Chợ Gạo,Bắc Ninh
21.159777000000002,106.124828,VTB,886,38,kh dùng tingbox ko muốn dung thêm loa,nam.trinh,Huyện Quế Võ,,Phố Trần Bàn,Bắc Ninh
21.016370000000002,106.20063818181819,VTB,951,38,Không tồn tại,tung.doan1,Huyện Lương Tài,,Phố Hồ Xuân Hương,Bắc Ninh
21.194523999999998,105.951158,ABB,855,17,,nhat.nguyen17,Huyện Yên Phong,,Đường Huỳnh Thúc Kháng,Bắc Ninh
21.05019857142857,106.17332285714285,VTB,576,73,Quán cafe dùng loa theo phần mềm quản lý bán hàng.Chủ cửa hàng không ở quán thường xuyên,tung.doan1,Huyện Gia Bình,,Phố Nguyễn Thanh Bình,Bắc Ninh
21.149658846153844,106.10384730769231,TCB,470,154,Ko tìm thấy kh,lieu.truong,Thành phố Bắc Ninh,,Đường Nguyễn Ấu Miễn,Bắc Ninh
21.092890909090908,105.94128,TCB,668,37,,qui.nguyen,Thị xã Từ Sơn,,Đường Lý Huệ Tông,Bắc Ninh
21.151600000000002,106.103345,VCB,0,29,,,Thành phố Bắc Ninh,,Đường Núi Bàn Cờ,Bắc Ninh
21.195042857142855,106.0664442857143,TCB,714,20,,,Thành phố Bắc Ninh,,Đường Nguyễn Thị Minh Khai,Bắc Ninh
21.140700000000002,106.11477,VCB,604,10,,,Thành phố Bắc Ninh,,Đường Sơn Đông,Bắc Ninh
21.030437777777781,106.01678,BIDV,898,79,,tung.doan1,Huyện Thuận Thành,,Đường Lạc Long Quân,Bắc Ninh
21.14856,105.95814363636363,VTB,804,30,Khách đã có loa  ko có nhu cầu mua thêm,qui.nguyen,Thị xã Từ Sơn,,Đường Ngô Gia Tự,Bắc Ninh
21.135065714285716,106.12723285714286,MBB,137,21,,,Thành phố Bắc Ninh,,Phố Nguyễn Thuyên,Bắc Ninh
21.160425,106.12444,TCB,756,13,,nam.trinh,Huyện Quế Võ,,Phố Trần Bàn,Bắc Ninh
21.1526825,106.1503275,TCB,838,24,,nam.trinh,Huyện Quế Võ,,Ngõ 928 Đường Quang Trung,Bắc Ninh
21.113954,105.958922,TCB,14,58,Đã có loa  không có nhu cầu mua thêm,qui.nguyen,Thị xã Từ Sơn,,Phố Chợ Tre,Bắc Ninh
21.170133809523808,106.1003619047619,MBB,144,46,Chủ quán dùng nhiều loa,manh.do1,Thành phố Bắc Ninh,,Đường Trần Hưng Đạo,Bắc Ninh
21.15507,106.03386800000001,VTB,456,24,,,Thành phố Bắc Ninh,,Đường Nguyễn Văn Cừ,Bắc Ninh
21.15361,106.13979,VPB,133,46,,nam.trinh,Huyện Quế Võ,,Phố Hoàng Văn Tán,Bắc Ninh
21.085144,105.94272900000001,TCB,753,31,,qui.nguyen,Thị xã Từ Sơn,,Đường Lý Huệ Tông,Bắc Ninh
21.108096666666665,106.03814444444444,AGRIBANK,657,17,,qui.nguyen,Huyện Tiên Du,,Đường tỉnh 291,Bắc Ninh
21.127474545454547,106.20097090909091,ACB,261,40,,nam.trinh,Huyện Quế Võ,,Quốc lộ 18,Bắc Ninh
21.093848,105.974374,VCB,504,27,,tien.nguyen30,Thị xã Từ Sơn,,Đường Trần Cố,Bắc Ninh
21.152545,106.14989,MBB,70,10,,nam.trinh,Huyện Quế Võ,,Ngõ 928 Đường Quang Trung,Bắc Ninh
21.059007777777776,106.08655444444445,HDB,117,45,MC cây xăng.đã có loa,tung.doan1,Huyện Thuận Thành,,Đường Vương Văn Trà,Bắc Ninh
21.143686000000002,106.01902000000001,BIDV,992,20,,qui.nguyen,Huyện Tiên Du,,Đường Hai Bà Trưng,Bắc Ninh
21.15193,106.1025325,MBB,424,29,,,Thành phố Bắc Ninh,,Đường Núi Bàn Cờ,Bắc Ninh
21.157370625,106.13171625,TCB,1,45,,nam.trinh,Huyện Quế Võ,,Phố Nguyễn Ấu Miễn,Bắc Ninh
21.19442875,106.068381875,VTB,F11,54,khách hàng đã có loa,nhat.nguyen17,Thành phố Bắc Ninh,,Phố Huỳnh Tấn Phát,Bắc Ninh
21.140784285714286,106.01934,TCB,71,19,,qui.nguyen,Huyện Tiên Du,,Đường Hồng Vân,Bắc Ninh
21.195067333333331,105.95173466666665,VPB,152,53,,cu.tran,Huyện Yên Phong,,Đường Huỳnh Thúc Kháng,Bắc Ninh
21.1473321875,106.116963125,TCB,904,80,,hoang.than,Thành phố Bắc Ninh,,Đường Đa Cấu,Bắc Ninh
21.163258571428571,106.12792428571427,VTB,382,32,,nam.trinh,Huyện Quế Võ,,Phố Giang Liễu,Bắc Ninh
21.137341538461538,106.07740615384617,VTB,700,44,,manh.do1,Thành phố Bắc Ninh,,Đường Nguyễn Trãi,Bắc Ninh
21.152132142857145,106.14974071428571,VTB,886,29,,nam.trinh,Huyện Quế Võ,,Ngõ 956 Đường Quang Trung,Bắc Ninh
21.11466,105.96080666666666,VTB,94,16,,tien.nguyen30,Thị xã Từ Sơn,,Phố Chợ Gạo,Bắc Ninh
21.203053333333333,106.05137333333333,TCB,569,18,,,Thành phố Bắc Ninh,,Đường Vua Bà,Bắc Ninh
21.0440075,106.27784750000001,MBB,876,27,,tung.doan1,Huyện Lương Tài,,Phố Kênh Vàng,Bắc Ninh
21.180833076923079,106.06624500000001,VTB,666,46,,nhat.nguyen17,Thành phố Bắc Ninh,,Phố Lửa Hồng,Bắc Ninh
21.187569285714286,106.06771785714285,TCB,888,48,,nhat.nguyen17,Thành phố Bắc Ninh,,Đường Hồ Ngọc Lân,Bắc Ninh
21.152371785714287,106.14007428571428,BIDV,529,119,,nam.trinh,Huyện Quế Võ,,Đường Dương Đình Nghệ,Bắc Ninh
21.159533548387092,106.12842774193548,MBB,934,107,kh dùng loa mb ko muốn dùng loa khác,nam.trinh,Huyện Quế Võ,,Phố Nguyễn Bỉnh Trục,Bắc Ninh
21.166917142857145,106.06468428571429,VTB,888,31,,manh.do1,Thành phố Bắc Ninh,,Đường Nguyễn Trãi,Bắc Ninh
21.146427619047618,106.12006761904762,TCB,971,64,Ko lăp,hoang.than,Thành phố Bắc Ninh,,Đường Đa Cấu,Bắc Ninh
21.138431999999998,105.946096,VTB,333,24,,tien.nguyen30,Thị xã Từ Sơn,,Phố Đồng Kỵ 2,Bắc Ninh
21.135085,106.12823499999999,VTB,691,14,,,Thành phố Bắc Ninh,,Phố Nguyễn Trọng Mại,Bắc Ninh
21.153322,106.09936,VTB,S01,20,,,Thành phố Bắc Ninh,,Đường Núi Bàn Cờ,Bắc Ninh
21.034087500000002,106.0375775,VCB,461,30,Lắp thành công loa trong bán kính 100m,tung.doan1,Huyện Thuận Thành,,Đường Lạc Long Quân,Bắc Ninh
21.16197,106.07683,TCB,237,10,,,Thành phố Bắc Ninh,,Đường Nguyễn Đăng Đạo,Bắc Ninh
21.0063,105.99931,VTB,734,10,,tung.doan1,Huyện Thuận Thành,,Ngõ 234 đường Dương Quang,Bắc Ninh
21.150325121951216,106.10395463414635,TCB,143,137,,hoang.than,Thành phố Bắc Ninh,,Đường Núi Bàn Cờ,Bắc Ninh
21.172031874999995,106.06220687499999,MBB,94,47,,manh.do1,Thành phố Bắc Ninh,,Đường Nguyễn Trãi,Bắc Ninh
21.123796,105.96791999999999,TCB,881,24,,tien.nguyen30,Thị xã Từ Sơn,,Phố Đồng Cẩm,Bắc Ninh
21.157352727272723,106.13522727272728,TCB,113,35,,nam.trinh,Huyện Quế Võ,,Phố Tôn Thất Thuyết,Bắc Ninh
21.1635,106.12613375000001,MBB,146,47,,nam.trinh,Huyện Quế Võ,,Phố Giang Liễu 1,Bắc Ninh
21.05904,106.08936333333332,VTB,324,12,,tung.doan1,Huyện Thuận Thành,,Đường Vương Văn Trà,Bắc Ninh
21.19669,106.08803,TCB,693,15,,,Thành phố Bắc Ninh,,Đường Trần Lựu,Bắc Ninh
21.128625714285715,105.95258571428572,MBB,730,22,,tien.nguyen30,Thị xã Từ Sơn,,Cầu Tiêu Ứng,Bắc Ninh
21.173717777777778,106.10775222222222,VCB,780,26,,nam.trinh,Huyện Quế Võ,,Phố Tú Mỡ,Bắc Ninh
21.132555357142852,106.07651607142856,VTB,886,63,khách đã có loa,nhat.nguyen17,Thành phố Bắc Ninh,,Ngõ 16 Phố Nguyễn Đoan Trung,Bắc Ninh
21.16966,106.10254833333335,SHINHAN,143,19,,nam.trinh,Huyện Quế Võ,,Đường Trần Hưng Đạo,Bắc Ninh
21.18266,106.0543,OCB,151,13,,,Thành phố Bắc Ninh,,Ngõ 185 Đường Lê Phụng Hiểu,Bắc Ninh
21.116055185185189,105.95370074074074,VCB,172,92,,qui.nguyen,Thị xã Từ Sơn,,Phố Đồng Tâm,Bắc Ninh
21.053498888888889,106.08743888888888,SACOM,748,45,MC đóng cửa.không tiếp cận được,tung.doan1,Huyện Thuận Thành,,Đường Âu Cơ,Bắc Ninh
21.1934275,106.087105,BIDV,206,13,,,Thành phố Bắc Ninh,,Đường Đấu Mã,Bắc Ninh
21.160265,106.12929833333332,VTB,256,21,,nam.trinh,Huyện Quế Võ,,Phố Dương Giai,Bắc Ninh
21.18754,106.065206,MBB,988,13,,,Thành phố Bắc Ninh,,Đường Lê Hồng Phong,Bắc Ninh
21.111846000000003,105.948927,MBB,729,24,,tien.nguyen30,Thị xã Từ Sơn,,Đường Trần Phú,Bắc Ninh
21.087331538461541,105.99709923076924,VTB,517,42,Không có cửa hàng khớp địa chỉ trong khu vực,tung.doan1,Huyện Tiên Du,,ngõ Gạch,Bắc Ninh
21.084504210526315,105.94186263157897,BIDV,651,42,,qui.nguyen,Thị xã Từ Sơn,,Ngõ 305 Đường Ninh Hiệp,Bắc Ninh
21.151754999999998,106.14785166666667,VTB,920,37,kh ko dùng loa,nam.trinh,Huyện Quế Võ,,Đường Nguyễn Phong Sắc,Bắc Ninh
21.1403975,106.05629416666667,VTB,768,17,,,Thành phố Bắc Ninh,,Đường Nguyễn Thủ Tiệp,Bắc Ninh
21.213015,105.9666725,AGRIBANK,872,17,,nhat.nguyen17,Huyện Yên Phong,,Đường tỉnh 295,Bắc Ninh
21.157562,106.13038999999999,TPB,383,35,,nam.trinh,Huyện Quế Võ,,Phố Nguyễn Huy Cận,Bắc Ninh
21.128252500000002,105.9998,TCB,647,20,,qui.nguyen,Huyện Tiên Du,,Đường TS8,Bắc Ninh
21.154367,105.945557,TCB,209,33,,cu.tran,Thị xã Từ Sơn,,Phố Mai Động 3,Bắc Ninh
21.084853333333331,105.98775666666667,VCB,727,24,,qui.nguyen,Huyện Tiên Du,,Đường số 13,Bắc Ninh
21.13433625,106.18519375,VPB,319,32,,nam.trinh,Huyện Quế Võ,,Đường Trần Hưng Đạo,Bắc Ninh
21.149704285714286,106.21688571428572,VCB,6,30,,nam.trinh,Huyện Quế Võ,,Đường đê Hữu Sông Cầu,Bắc Ninh
21.148629,106.112674,VTB,397,63,,hoang.than,Thành phố Bắc Ninh,,Đường Đàm Văn Lễ,Bắc Ninh
21.173916666666667,106.07264666666666,VCB,334,10,,,Thành phố Bắc Ninh,,Đường Nguyễn Đăng Đạo,Bắc Ninh
21.028819999999996,106.0089025,TCB,356,20,,tung.doan1,Huyện Thuận Thành,,Đường Dương Đức Hiền,Bắc Ninh
21.120896666666667,105.95227,BIDV,621,11,,tien.nguyen30,Thị xã Từ Sơn,,Phố Trang Liệt 1,Bắc Ninh
21.1518475,106.10233,VCB,874,18,,,Thành phố Bắc Ninh,,Đường Núi Bàn Cờ,Bắc Ninh
21.148765,106.11355499999999,BIDV,HF1,11,,,Thành phố Bắc Ninh,,Đường Đặng Cung,Bắc Ninh
21.14371,106.11991,BIDV,633,31,Mc ko quan tâm,hoang.than,Thành phố Bắc Ninh,,Đường Đa Cấu,Bắc Ninh
21.182537,106.06804799999999,TCB,979,35,,nhat.nguyen17,Thành phố Bắc Ninh,,Đường Nguyễn Gia Thiều,Bắc Ninh
21.168163749999998,106.1071325,MBB,g0k,43,Chủ cửa hàng đã sử dụng loa ngân hàng  Ko có nhu cầu sử dụng,hoang.than,Thành phố Bắc Ninh,,Phố Tú Mỡ,Bắc Ninh
21.148715000000003,106.11258000000001,TCB,961,10,,,Thành phố Bắc Ninh,,Đường Đàm Văn Lễ,Bắc Ninh
21.139218749999998,106.01436125000001,BIDV,659,13,,qui.nguyen,Huyện Tiên Du,,Đường Lý Thường Kiệt,Bắc Ninh
21.149720000000002,106.21685105263157,TCB,864,80,,nam.trinh,Huyện Quế Võ,,Đường đê Hữu Sông Cầu,Bắc Ninh
21.12203625,105.97381,VPB,135,41,Đã có loa  không có nhu cầu mua thêm,qui.nguyen,Thị xã Từ Sơn,,Đường Lý Thánh Tông,Bắc Ninh
21.130695000000003,106.0245675,VCB,289,19,,qui.nguyen,Huyện Tiên Du,,Đường tỉnh 270,Bắc Ninh
21.119946249999998,105.96929687499998,VCB,893,46,Đã có loa  không có nhu cầu mua thêm,qui.nguyen,Thị xã Từ Sơn,,Đường Lê Quang Đạo,Bắc Ninh
21.157408,106.06847900000001,MBB,980,36,,manh.do1,Thành phố Bắc Ninh,,Đường Nguyễn Trãi,Bắc Ninh
21.045242727272726,106.11875545454546,MBB,755,39,Cửa hàng đang dùng loa của MB Bank và có loa MoMo,tung.doan1,Huyện Thuận Thành,,Phố Nguyễn Cư Đạo,Bắc Ninh
21.126594117647059,105.95420882352941,MBB,646,51,Đã có loa ko có nhu cầu mua thêm,qui.nguyen,Thị xã Từ Sơn,,Đường Nguyễn Văn Cừ,Bắc Ninh
21.187593333333336,106.06679666666668,MBB,588,20,,,Thành phố Bắc Ninh,,Đường Hồ Ngọc Lân,Bắc Ninh
21.170113999999998,105.988654,BIDV,181,20,,qui.nguyen,Huyện Tiên Du,,Đường tỉnh 270,Bắc Ninh
21.151288,106.10341399999999,VTB,186,31,Mc đã dùng loa,hoang.than,Thành phố Bắc Ninh,,Đường Núi Bàn Cờ,Bắc Ninh
21.112560000000002,105.95307749999999,MBB,66,10,,tien.nguyen30,Thị xã Từ Sơn,,Phố Đình Bảng,Bắc Ninh
21.155075238095232,106.0338580952381,VTB,266,59,khách hàng đã có loa,nhat.nguyen17,Thành phố Bắc Ninh,,Đường Nguyễn Văn Cừ,Bắc Ninh
21.120425555555553,105.99301444444444,SHB,287,35,,tung.doan1,Huyện Tiên Du,,Đường TS3,Bắc Ninh
21.089335714285713,105.98671285714286,VTB,F00,26,,qui.nguyen,Huyện Tiên Du,,Đường số 8,Bắc Ninh
21.182317777777776,106.06824074074073,TCB,244,73,,nhat.nguyen17,Thành phố Bắc Ninh,,Phố Nguyễn Xuân Chính,Bắc Ninh
21.198555555555554,105.92856444444445,TCB,158,29,,nhat.nguyen17,Huyện Yên Phong,,Đường tỉnh 286,Bắc Ninh
21.036673636363634,106.08427863636363,VCCB,135,48,Định vị leadscout không có cửa hàng nào,tung.doan1,Huyện Thuận Thành,,Đường Lạc Long Quân,Bắc Ninh
21.146223888888887,106.11733111111111,MBB,931,61,Đã dùng loa bank,hoang.than,Thành phố Bắc Ninh,,Ngõ 96 Đường Đa Cấu,Bắc Ninh
21.188872352941178,106.01649235294117,MBB,648,57,Đã dùng loa MB.,cu.tran,Huyện Yên Phong,,Đường An Dương Vương,Bắc Ninh
21.15657313559322,106.11323127118646,MBB,983,407,Mc ko có nhu cầu,hoang.than,Thành phố Bắc Ninh,,Đường D1,Bắc Ninh
21.166362499999998,106.0977325,VTB,250,13,,,Thành phố Bắc Ninh,,Đường Chu Mẫu,Bắc Ninh
21.11852,105.96400315789477,TCB,494,48,Đã có loa  không có nhu cầu mua thêm,qui.nguyen,Thị xã Từ Sơn,,Phố Hoàng Thụy Chi,Bắc Ninh
21.148745,105.945015,BIDV,64,18,,tien.nguyen30,Thị xã Từ Sơn,,Đường Đàm Viết Kính,Bắc Ninh
21.17021,106.06192,SHB,997,11,,,Thành phố Bắc Ninh,,Ngõ 122 Phố Bồ Sơn,Bắc Ninh
21.168635769230768,106.05611192307691,TPB,602,61,,manh.do1,Thành phố Bắc Ninh,,Đường Lê Thái Tổ,Bắc Ninh
21.115810909090914,105.99384333333333,TCB,222,127,,tung.doan1,Huyện Tiên Du,,Đường cao tốc Hà Nội - Bắc Giang,Bắc Ninh
21.158714375,106.14447750000001,VCB,348,42,,nam.trinh,Huyện Quế Võ,,Phố Lưu Trọng Lư,Bắc Ninh
21.096315,105.976095,VTB,948,15,,tien.nguyen30,Thị xã Từ Sơn,,Đường Nguyễn Thì Phùng,Bắc Ninh
21.1911375,106.00114500000001,VPB,412,26,,nhat.nguyen17,Huyện Yên Phong,,Đường cao tốc Nội Bài – Bắc Ninh,Bắc Ninh
21.148988000000003,106.13623399999999,not defined or m2m,720,32,,nam.trinh,Huyện Quế Võ,,Phố Nguyễn Đình Trạch,Bắc Ninh
21.040936666666664,106.29091666666666,VCB,122,14,,tung.doan1,Huyện Lương Tài,,Phố Kênh Vàng,Bắc Ninh
21.116419,105.95686299999998,VCB,478,36,Đã có loa. Không có nhu cầu mua thêm,qui.nguyen,Thị xã Từ Sơn,,Đường Trần Phú,Bắc Ninh
21.17997375,106.06108125,TCB,740,44,,nhat.nguyen17,Thành phố Bắc Ninh,,Đường Ngô Gia Tự,Bắc Ninh
21.195781153846148,105.94988500000001,MSB,82,107,,cu.tran,Huyện Yên Phong,,Đường An Dương Vương,Bắc Ninh
21.15637,106.14280666666666,VTB,F11,10,,nam.trinh,Huyện Quế Võ,,Phố Nguyễn Hoành Khoản,Bắc Ninh
21.18778285714286,106.00681285714286,MBB,50,28,,nhat.nguyen17,Huyện Yên Phong,,Đường cao tốc Nội Bài – Bắc Ninh,Bắc Ninh
21.104000000000003,106.03892181818181,MBB,688,32,Đã có loa chuyển khoản,tung.doan1,Huyện Tiên Du,,Đường tỉnh 270,Bắc Ninh
21.180533333333333,106.06827,MBB,549,38,,nhat.nguyen17,Thành phố Bắc Ninh,,Phố Nguyễn Bỉnh Quân,Bắc Ninh
21.135160625,106.12873687499999,TCB,333,81,Ko tìm thấy kh,lieu.truong,Thành phố Bắc Ninh,,Phố Nguyễn Trọng Mại,Bắc Ninh
21.19362,106.07111499999999,TCB,469,18,,,Thành phố Bắc Ninh,,Phố Nguyễn Công Trứ,Bắc Ninh
21.200598749999997,106.09522125,VPB,858,25,,,Thành phố Bắc Ninh,,Đường Hoàng Quốc Việt,Bắc Ninh
21.167128461538461,106.10619076923076,VCB,1,30,Khách hàng đã sử dụng loa bank  ko có nhu cầu sử dụng thêm,hoang.than,Thành phố Bắc Ninh,,Phố Tú Mỡ,Bắc Ninh
21.109607777777782,105.99254666666667,MBB,216,62,,tung.doan1,Huyện Tiên Du,,Đường tỉnh 287,Bắc Ninh
21.157684285714286,106.12908928571429,TCB,428,43,,nam.trinh,Huyện Quế Võ,,Phố Dương Giai,Bắc Ninh
21.166795333333333,106.05514533333331,BIDV,9V1,60,,manh.do1,Thành phố Bắc Ninh,,Đường Lý Anh Tông,Bắc Ninh
21.17036,106.10808,MBB,20,16,,nam.trinh,Huyện Quế Võ,,Phố Tú Mỡ,Bắc Ninh
21.169192000000002,106.10788500000001,MBB,564,42,kh ko có nhu cầu,nam.trinh,Huyện Quế Võ,,Phố Tú Mỡ,Bắc Ninh
21.18795230769231,105.9550723076923,TCB,987,52,Khách chưa quan tâm quay lại chăm sóc sau,cu.tran,Huyện Yên Phong,,Đường Văn Tiến Dũng,Bắc Ninh
21.030405744680841,106.01681510638298,VCB,7,201,Không tìm thấy cửa hàng,tung.doan1,Huyện Thuận Thành,,Đường Lạc Long Quân,Bắc Ninh
21.092120952380952,105.97746857142857,VTB,886,78,,qui.nguyen,Thị xã Từ Sơn,,Đường Trần Cố,Bắc Ninh
21.174690500000004,106.080934,VTB,441,62,,manh.do1,Thành phố Bắc Ninh,,Đường Trần Hưng Đạo,Bắc Ninh
21.16167,106.12999,TPB,868,12,,nam.trinh,Huyện Quế Võ,,Ngõ 31 Phố Giang Liễu,Bắc Ninh
21.15730470588235,106.15146235294117,ABB,111,46,,nam.trinh,Huyện Quế Võ,,Đường Quang Trung,Bắc Ninh
21.151458181818182,106.10247636363637,VCB,705,33,Tham khảo thêm,hoang.than,Thành phố Bắc Ninh,,Đường Núi Bàn Cờ,Bắc Ninh
21.151773333333331,106.1478275,TCB,824,59,,nam.trinh,Huyện Quế Võ,,Ngõ 108 Đường Nguyễn Phong Sắc,Bắc Ninh
21.187664166666668,106.06484333333334,WOORIBANK,669,39,khách hàng dùng duy nhất ngân hàng Worribank không liên kết được,nhat.nguyen17,Thành phố Bắc Ninh,,Đường Hồ Ngọc Lân,Bắc Ninh
21.194482857142859,105.95092571428572,MBB,999,28,,nhat.nguyen17,Huyện Yên Phong,,Đường Huỳnh Thúc Kháng,Bắc Ninh
21.130815,106.02454125,MBB,606,21,,qui.nguyen,Huyện Tiên Du,,Đường tỉnh 270,Bắc Ninh
21.157355000000003,106.13521499999999,TCB,324,32,,nam.trinh,Huyện Quế Võ,,Phố Tôn Thất Thuyết,Bắc Ninh
21.201048333333333,105.94962166666667,TCB,2,22,,nhat.nguyen17,Huyện Yên Phong,,Phố Lương Bá Nhạc,Bắc Ninh
21.16423142857143,106.05286696428574,TCB,168,210,,manh.do1,Thành phố Bắc Ninh,,Đường Triệu Việt Vương,Bắc Ninh
21.200007142857142,105.92440428571429,VCB,67,29,,nhat.nguyen17,Huyện Yên Phong,,Đường tỉnh 286,Bắc Ninh
21.120835714285711,105.98073857142857,TPB,42,22,,tien.nguyen30,Thị xã Từ Sơn,,Ngõ 70 Phố Lư Vĩnh Xuyên,Bắc Ninh
21.064123333333335,106.23171666666667,TCB,153,10,,tung.doan1,Huyện Gia Bình,,Chợ Ngụ,Bắc Ninh
21.093726428571429,105.94135142857142,VCB,358,31,,qui.nguyen,Thị xã Từ Sơn,,Đường Lý Huệ Tông,Bắc Ninh
21.172307058823527,106.05593470588236,TCB,83,65,,nhat.nguyen17,Thành phố Bắc Ninh,,Đường Hoàng Hoa Thám,Bắc Ninh
21.15191714285714,106.10228,MBB,788,20,,,Thành phố Bắc Ninh,,Đường Núi Bàn Cờ,Bắc Ninh
21.202544285714286,105.95248428571428,MBB,578,44,,cu.tran,Huyện Yên Phong,,Phố Nguyễn Thanh Cần,Bắc Ninh
21.147279375,106.11140187499998,TCB,991,115,,hoang.than,Thành phố Bắc Ninh,,Đường Thái Bảo,Bắc Ninh
21.160655862068964,106.12454896551725,VCB,981,84,kh dùng loa mobi ko dùng loa khác,nam.trinh,Huyện Quế Võ,,Phố Nguyễn Bỉnh Trục,Bắc Ninh
21.173406521739132,106.10805173913042,VTB,145,76,kh ko muốn dùng loa,nam.trinh,Huyện Quế Võ,,Phố Tú Mỡ,Bắc Ninh
21.150306,106.103141,TCB,756,38,Ko tìm thấy KH,lieu.truong,Thành phố Bắc Ninh,,Đường Nguyễn Ấu Miễn,Bắc Ninh
21.153114000000002,106.1005945,TCB,204,90,Dsax sử dụng,hoang.than,Thành phố Bắc Ninh,,Đường Núi Bàn Cờ,Bắc Ninh
21.1612744,106.127532,MBB,532,92,kh dùng loa mb ko dùng loa khác,nam.trinh,Huyện Quế Võ,,Phố Phan Kế Bính,Bắc Ninh
21.114154444444441,105.99486555555556,MBB,592,45,Đã có loa,tung.doan1,Huyện Tiên Du,,Đường cao tốc Hà Nội - Bắc Giang,Bắc Ninh
21.189589285714288,106.01253785714285,VTB,886,72,điểm bán là cây xăng,nhat.nguyen17,Huyện Yên Phong,,Đường An Dương Vương,Bắc Ninh
21.064624736842106,106.23255999999999,MBB,0lm,85,,tung.doan1,Huyện Gia Bình,,Đường trục trung tâm Nhân Thắng,Bắc Ninh
21.1566,106.06911333333333,MBB,84,11,,,Thành phố Bắc Ninh,,Đường Ba Huyện,Bắc Ninh
21.135658333333335,105.94137083333332,VTB,235,36,,cu.tran,Thị xã Từ Sơn,,Phố Tây Am,Bắc Ninh
21.13661,106.0789,TCB,857,25,,,Thành phố Bắc Ninh,,Đường Nguyễn Trãi,Bắc Ninh
21.195950000000003,105.950855,MBB,52,10,,nhat.nguyen17,Huyện Yên Phong,,Đường Nguyễn Chí Thanh,Bắc Ninh
21.17179,106.05685333333334,TCB,27,10,,,Thành phố Bắc Ninh,,Đường Hoàng Hoa Thám,Bắc Ninh
21.187293333333333,106.05929666666665,TCB,881,15,,,Thành phố Bắc Ninh,,Đường Hồ Ngọc Lân,Bắc Ninh
21.205837499999998,105.981145,VCB,640,25,,nhat.nguyen17,Huyện Yên Phong,,Đường Yên Phong 5,Bắc Ninh
21.180155882352942,106.05781823529412,AGRIBANK,100,32,,nhat.nguyen17,Thành phố Bắc Ninh,,Đường Lê Phụng Hiểu,Bắc Ninh
21.146174444444444,106.11328333333333,MBB,852,39,,hoang.than,Thành phố Bắc Ninh,,Đường Sơn Đông,Bắc Ninh
21.088823333333334,105.97003333333333,VTB,874,11,,tien.nguyen30,Thị xã Từ Sơn,,Phố Gạo Trên,Bắc Ninh
21.09078,105.94983500000001,BIDV,658,35,,qui.nguyen,Thị xã Từ Sơn,,Đường Lý Anh Tông,Bắc Ninh
21.171353333333332,106.05729666666667,TCB,985,22,,,Thành phố Bắc Ninh,,Đường Ngọc Hân Công Chúa,Bắc Ninh
21.190903333333335,106.00214500000001,VTB,428,61,,cu.tran,Huyện Yên Phong,,Đường cao tốc Nội Bài – Bắc Ninh,Bắc Ninh
21.171665789473685,106.10801947368421,VTB,886,74,,nam.trinh,Huyện Quế Võ,,Phố Tú Mỡ,Bắc Ninh
21.18911,106.076435,NCB,901,16,,,Thành phố Bắc Ninh,,Phố Nguyễn Xí,Bắc Ninh
21.147637857142854,106.06893142857143,MBB,642,51,,lieu.truong,Thành phố Bắc Ninh,,Đường Ném Thượng,Bắc Ninh
21.062394285714287,106.08896285714286,MBB,100,24,,tung.doan1,Huyện Thuận Thành,,Phố Nguyễn Quang Bật,Bắc Ninh
21.085365625,105.98785875000002,VCB,319,46,,tung.doan1,Huyện Tiên Du,,Đường số 13,Bắc Ninh
21.148754615384618,106.11460538461539,TCB,182,40,,hoang.than,Thành phố Bắc Ninh,,Đường Sơn Đông,Bắc Ninh
21.18933,106.0584,BIDV,666,10,,,Thành phố Bắc Ninh,,Ngõ 72 Phố Yên Mẫn,Bắc Ninh
21.142146666666665,106.01695833333333,TCB,141,15,,qui.nguyen,Huyện Tiên Du,,Ngõ 110 Đường Lý Thường Kiệt,Bắc Ninh
21.139878421052632,106.10289526315789,TCB,461,82,Ko tìm tháycửa hàng,hoang.than,Thành phố Bắc Ninh,,Đường Đàm Văn Tiết,Bắc Ninh
21.064376666666668,106.23376333333333,BIDV,515,13,,tung.doan1,Huyện Gia Bình,,Đường trục trung tâm Nhân Thắng,Bắc Ninh
21.17229375,106.10807875,MBB,618,24,,nam.trinh,Huyện Quế Võ,,Phố Tú Mỡ,Bắc Ninh
21.123801666666665,105.97060833333333,VCCB,447,22,,tien.nguyen30,Thị xã Từ Sơn,,Đường Minh Khai,Bắc Ninh
21.123678333333331,105.97024733333333,BIDV,622,109,Quán Highlands Coffee  không lắp loa mình,qui.nguyen,Thị xã Từ Sơn,,Đường Minh Khai,Bắc Ninh
21.15406,106.138635,VCB,794,15,,nam.trinh,Huyện Quế Võ,,Phố Hoàng Văn Tán,Bắc Ninh
21.162103225806455,106.00508870967741,TCB,506,119,,tung.doan1,Huyện Tiên Du,,Đường tỉnh 270,Bắc Ninh
21.100806666666667,106.008325,MBB,74,41,Đã có loa chuyển khoản,tung.doan1,Huyện Tiên Du,,Đường tỉnh 287,Bắc Ninh
21.205956500000003,105.9871745,MBB,917,31,,cu.tran,Huyện Yên Phong,,Đường Yên Phong 5,Bắc Ninh
21.164343333333331,106.127304,MBB,760,48,,nam.trinh,Huyện Quế Võ,,Phố Giang Liễu,Bắc Ninh
21.07773,105.9909435,VCB,745,51,,tung.doan1,Huyện Tiên Du,,Đường Số 7,Bắc Ninh
21.15106,106.14728500000001,ACB,697,10,,nam.trinh,Huyện Quế Võ,,Ngõ 113 Đường Nguyễn Phong Sắc,Bắc Ninh
21.030252500000003,106.2096825,TCB,118,12,,tung.doan1,Huyện Lương Tài,,Phố Bùi,Bắc Ninh
21.08448,105.98805,VTB,872,10,,qui.nguyen,Huyện Tiên Du,,Đường số 13,Bắc Ninh
21.048912,106.08876,VTB,731,12,,tung.doan1,Huyện Thuận Thành,,Đường Âu Cơ,Bắc Ninh
21.121291999999997,105.951534,MBB,397,26,,tien.nguyen30,Thị xã Từ Sơn,,Phố Trang Liệt 1,Bắc Ninh
21.195587142857146,105.95123857142858,MBB,204,15,,nhat.nguyen17,Huyện Yên Phong,,Đường An Dương Vương,Bắc Ninh
21.1903275,106.0712475,TCB,865,23,,,Thành phố Bắc Ninh,,Đường Hồ Ngọc Lân,Bắc Ninh
21.154396,106.14523,VCB,652,50,,nam.trinh,Huyện Quế Võ,,Đường Trần Hưng Đạo,Bắc Ninh
21.10793,105.947795,MBB,720,10,,tien.nguyen30,Thị xã Từ Sơn,,Phố Lý Khánh Văn,Bắc Ninh
21.136090000000003,105.94967166666667,BIDV,967,49,Đã có loa  không có nhu cầu mua thêm,qui.nguyen,Thị xã Từ Sơn,,Đường Đồng Kỵ 1,Bắc Ninh
21.173446666666667,106.10818333333333,MSB,4,14,,nam.trinh,Huyện Quế Võ,,Phố Tú Mỡ,Bắc Ninh
21.114295,105.97860833333334,VPB,585,42,Đã có loa  không có nhu cầu mua thêm,qui.nguyen,Thị xã Từ Sơn,,Đường Lý Thánh Tông,Bắc Ninh
21.139501333333335,106.121504,VCB,843,64,,lieu.truong,Thành phố Bắc Ninh,,Đường Đông Dương,Bắc Ninh
21.15354692307692,106.09930230769233,AGRIBANK,70,51,Mc đã sử dụng loa bank,hoang.than,Thành phố Bắc Ninh,,Đường Núi Bàn Cờ,Bắc Ninh
21.152393076923076,106.14420692307694,SACOM,890,40,,nam.trinh,Huyện Quế Võ,,Đường Nguyễn Phong Sắc,Bắc Ninh
21.159198333333332,106.12706,AGRIBANK,656,29,,nam.trinh,Huyện Quế Võ,,Phố Phan Kế Bính,Bắc Ninh
21.174830000000004,106.10859222222223,TCB,81,36,Kh dùng loa tech miễn phí ko dùng loa momo,nam.trinh,Huyện Quế Võ,,Phố Trần Bình Trọng,Bắc Ninh
21.103013750000002,105.96228500000001,TCB,46,41,,qui.nguyen,Thị xã Từ Sơn,,Đường Lý Thái Tổ,Bắc Ninh
21.102164,105.98503,VCB,425,14,,qui.nguyen,Huyện Tiên Du,,Đường N5-1,Bắc Ninh
21.144711666666666,106.11300166666668,VCB,664,24,,,Thành phố Bắc Ninh,,Đường Sơn Đông,Bắc Ninh
21.153014285714285,106.10318285714285,VPB,771,26,,,Thành phố Bắc Ninh,,Đường Đàm Văn Lễ,Bắc Ninh
21.179182727272725,106.06842727272729,MBB,616,37,Khách đã dùng nhiều loa,manh.do1,Thành phố Bắc Ninh,,Đường Trần Hưng Đạo,Bắc Ninh
21.09618,105.97680166666667,MBB,620,20,,tien.nguyen30,Thị xã Từ Sơn,,Phố Phù Lộc,Bắc Ninh
21.2214375,106.0641825,TCB,419,19,,,Thành phố Bắc Ninh,,Ngõ 60 Đường Hữu Chấp,Bắc Ninh
21.149007272727271,106.11189909090909,TCB,366,52,,hoang.than,Thành phố Bắc Ninh,,Đường Đàm Văn Lễ,Bắc Ninh
21.20106,106.00017,VTB,312,21,,nhat.nguyen17,Huyện Yên Phong,,Đường YP6,Bắc Ninh
21.137200714285715,106.02178928571429,MBB,930,87,Đã có loa chuyển khoản,tung.doan1,Huyện Tiên Du,,Đường tỉnh 270,Bắc Ninh
21.09239,105.94185833333334,VPB,363,16,,tien.nguyen30,Thị xã Từ Sơn,,Đường Lý Huệ Tông,Bắc Ninh
21.205949999999998,105.98429625,WOORIBANK,279,34,,cu.tran,Huyện Yên Phong,,Đường Yên Phong 5,Bắc Ninh
21.091738620689654,106.02617068965516,AGRIBANK,999,97,Cây xăng.đã có loa chuyển khoản,tung.doan1,Huyện Tiên Du,,Đường tỉnh 287,Bắc Ninh
21.153271538461539,106.13968230769231,TCB,605,28,,nam.trinh,Huyện Quế Võ,,Đường Nguyễn Phong Sắc,Bắc Ninh
21.088338571428569,105.9697257142857,VCB,223,17,,tien.nguyen30,Thị xã Từ Sơn,,Phố Rích Gạo,Bắc Ninh
21.16148,106.1277375,VCB,592,13,,nam.trinh,Huyện Quế Võ,,Phố Giang Liễu 2,Bắc Ninh
21.148767142857146,105.95806071428572,MBB,982,33,,qui.nguyen,Thị xã Từ Sơn,,Đường Ngô Gia Tự,Bắc Ninh
21.170003043478264,106.10065826086958,SACOM,156,76,Chủ không có ở quán,manh.do1,Thành phố Bắc Ninh,,Đường Trần Hưng Đạo,Bắc Ninh
21.195173125,105.95274375,MBB,888,33,,cu.tran,Huyện Yên Phong,,Đường An Dương Vương,Bắc Ninh
21.147178999999998,106.111004,VCB,317,34,,hoang.than,Thành phố Bắc Ninh,,Đường Thái Bảo,Bắc Ninh
21.11372,105.99099,MBB,480,12,,qui.nguyen,Huyện Tiên Du,,Đường cao tốc Hà Nội - Bắc Giang,Bắc Ninh
21.071132,105.97745,BIDV,382,41,,tung.doan1,Thị xã Từ Sơn,,Đường số 3,Bắc Ninh
21.059365384615386,106.08791615384615,VTB,573,34,MC đã có loa.Không nghe tư vấn,tung.doan1,Huyện Thuận Thành,,Đường Vương Văn Trà,Bắc Ninh
21.028698666666664,106.009458,MBB,116,58,,tung.doan1,Huyện Thuận Thành,,Đường Dương Đức Hiền,Bắc Ninh
21.1504725,106.1039925,VTB,164,18,,,Thành phố Bắc Ninh,,Đường Núi Bàn Cờ,Bắc Ninh
21.1561,106.03872,TCB,983,16,,,Thành phố Bắc Ninh,,Ngõ 633 Đường Nguyễn Văn Cừ,Bắc Ninh
21.1521325,106.14963,VCB,508,11,,nam.trinh,Huyện Quế Võ,,Ngõ 956 Đường Quang Trung,Bắc Ninh
21.0874275,105.99709250000001,VCB,761,38,,tung.doan1,Huyện Tiên Du,,ngõ Gạch,Bắc Ninh
21.159301666666664,106.12576833333333,VTB,886,26,,nam.trinh,Huyện Quế Võ,,Phố Nguyễn Đức Trung,Bắc Ninh
21.19896,105.92598000000001,BIDV,391,25,,nhat.nguyen17,Huyện Yên Phong,,Đường tỉnh 286,Bắc Ninh
21.119175,106.16391500000002,TCB,666,42,,nam.trinh,Huyện Quế Võ,,Ngõ 1877 Đường Quang Trung,Bắc Ninh
21.188400384615381,106.0696803846154,VTB,669,67,,nhat.nguyen17,Thành phố Bắc Ninh,,Ngõ 169 Đường Hồ Ngọc Lân,Bắc Ninh
21.092676666666669,105.96839333333332,BIDV,742,14,,tien.nguyen30,Thị xã Từ Sơn,,Phố Sóc Cả,Bắc Ninh
21.150468965517241,106.10403620689657,TCB,145,101,,hoang.than,Thành phố Bắc Ninh,,Đường Núi Bàn Cờ,Bắc Ninh
21.171075454545456,106.10502090909091,MBB,960,39,kh dùng loa MB ko có nhu cầu dùng thêm loa,nam.trinh,Huyện Quế Võ,,Phố Vũ Hữu Dụng,Bắc Ninh
21.15142,106.15264,TPB,868,12,,nam.trinh,Huyện Quế Võ,,Đường Nguyễn Phong Sắc,Bắc Ninh
21.153998,106.15172799999999,VTB,293,29,,nam.trinh,Huyện Quế Võ,,Đường Quang Trung,Bắc Ninh
21.172456,106.108638,MBB,388,29,,nam.trinh,Huyện Quế Võ,,Phố Tú Mỡ,Bắc Ninh
21.18869,106.08042,VTB,868,22,,,Thành phố Bắc Ninh,,Đường Luy Lâu,Bắc Ninh
21.101940000000003,106.00581833333334,BIDV,713,14,,qui.nguyen,Huyện Tiên Du,,Đường tỉnh 287,Bắc Ninh
21.14402,106.1058,VTB,452,15,,,Thành phố Bắc Ninh,,Đường Hàm Long,Bắc Ninh
21.151895,106.10398166666667,MBB,703,34,Đã dùng lo ngân hàng,hoang.than,Thành phố Bắc Ninh,,Đường Đàm Văn Lễ,Bắc Ninh
21.197919999999996,105.95081333333333,MBB,456,19,,nhat.nguyen17,Huyện Yên Phong,,Phố Nghiêm Bá Ký,Bắc Ninh
21.118511666666667,105.96516666666666,MBB,984,38,Đã có loa. Không có nhu cầu mua thêm,qui.nguyen,Thị xã Từ Sơn,,Đường Lê Quang Đạo,Bắc Ninh
21.19779,105.95505166666666,MBB,888,64,,cu.tran,Huyện Yên Phong,,Phố Ngô Phúc Tinh,Bắc Ninh
21.13524428571429,105.94131642857143,VPB,496,150,Đã có loa  không có nhu cầu mua thêm,qui.nguyen,Thị xã Từ Sơn,,Phố Tây Am,Bắc Ninh
21.17211,106.061975,VTB,868,16,,,Thành phố Bắc Ninh,,Đường Nguyễn Trãi,Bắc Ninh
21.1340675,105.99999,TCB,516,14,,qui.nguyen,Huyện Tiên Du,,Đường Lý Thường Kiệt,Bắc Ninh
21.148500000000002,105.93056857142858,VTB,898,16,,tien.nguyen30,Thị xã Từ Sơn,,Đường Nguyễn Văn Cừ,Bắc Ninh
21.1032625,106.00338249999999,MBB,999,12,,qui.nguyen,Huyện Tiên Du,,Đường tỉnh 287,Bắc Ninh
21.187641428571432,106.06493142857143,NCB,601,17,,,Thành phố Bắc Ninh,,Đường Hồ Ngọc Lân,Bắc Ninh
21.15470066666667,106.06858666666666,not defined or m2m,961,38,Kh dùng loa tingbox. Ko có nhu cầu sử dụng thêm,lieu.truong,Thành phố Bắc Ninh,,Đường Ném Sơn,Bắc Ninh
21.160267419354842,106.12555129032259,VTB,886,114,,nam.trinh,Huyện Quế Võ,,Phố Nguyễn Bỉnh Trục,Bắc Ninh
21.18876,106.00396333333333,TCB,730,10,,nhat.nguyen17,Huyện Yên Phong,,Đường An Dương Vương,Bắc Ninh
21.04398,106.27800166666667,AGRIBANK,271,48,,tung.doan1,Huyện Lương Tài,,Phố Kênh Vàng,Bắc Ninh
21.184120000000004,106.07004047619047,MBB,128,36,,nhat.nguyen17,Thành phố Bắc Ninh,,Đường Nguyễn Gia Thiều,Bắc Ninh
21.134710000000002,106.12626636363638,VCB,987,88,Ko tìm thấy cửa hàng,hoang.than,Thành phố Bắc Ninh,,Phố Nguyễn Thuyên,Bắc Ninh
21.005857999999996,105.999775,VCB,840,30,,tung.doan1,Huyện Thuận Thành,,Ngõ 234 đường Dương Quang,Bắc Ninh
21.09108,105.97907,VCCB,159,10,,tien.nguyen30,Thị xã Từ Sơn,,Đường Trần Cố,Bắc Ninh
21.034646,106.038071,TCB,90,26,,tung.doan1,Huyện Thuận Thành,,Đường Lạc Long Quân,Bắc Ninh
21.114023333333332,105.9944,TCB,41,25,,qui.nguyen,Huyện Tiên Du,,Đường cao tốc Hà Nội - Bắc Giang,Bắc Ninh
21.185526111111109,106.06799944444444,VCB,508,58,,nhat.nguyen17,Thành phố Bắc Ninh,,Đường Âu Cơ,Bắc Ninh
21.1637025,106.14948749999999,TCB,976,15,,nam.trinh,Huyện Quế Võ,,Đường Trương Định,Bắc Ninh
21.19655,106.08767,VTB,747,12,,,Thành phố Bắc Ninh,,Đường Trần Lựu,Bắc Ninh
21.1719075,106.10798249999999,VTB,202,13,,nam.trinh,Huyện Quế Võ,,Phố Tú Mỡ,Bắc Ninh
21.084944444444446,105.98779666666667,BIDV,761,35,,tung.doan1,Huyện Tiên Du,,Đường số 13,Bắc Ninh
21.173457333333332,106.10815733333334,MBB,386,72,kh dùng loa mb,nam.trinh,Huyện Quế Võ,,Phố Tú Mỡ,Bắc Ninh
21.144714444444446,106.11305,TCB,235,42,,hoang.than,Thành phố Bắc Ninh,,Đường Sơn Đông,Bắc Ninh
21.15081,106.10358,TCB,146,18,,,Thành phố Bắc Ninh,,Đường Núi Bàn Cờ,Bắc Ninh
21.134325714285715,106.07885857142855,VTB,886,14,,,Thành phố Bắc Ninh,,Đường Nguyễn Trãi,Bắc Ninh
21.150744615384614,106.16389538461539,VTB,E01,32,,nam.trinh,Huyện Quế Võ,,Đường Trần Hưng Đạo,Bắc Ninh
21.112326774193548,105.95542612903225,TCB,866,102,,qui.nguyen,Thị xã Từ Sơn,,Phố Vạn Hạnh,Bắc Ninh
21.118874444444447,105.97932444444444,MBB,564,16,,tien.nguyen30,Thị xã Từ Sơn,,Đường Nguyên Phi Ỷ Lan,Bắc Ninh
21.115904999999998,105.95554,VPB,215,12,,tien.nguyen30,Thị xã Từ Sơn,,Đường Trần Phú,Bắc Ninh
21.160966,106.180282,VTB,648,31,,nam.trinh,Huyện Quế Võ,,Ngõ 246 Đường Khuất Duy Tiến,Bắc Ninh
21.059068571428572,106.08934142857143,MBB,6,20,,tung.doan1,Huyện Thuận Thành,,Đường Vương Văn Trà,Bắc Ninh
21.0178625,106.20179999999999,VTB,287,32,,tung.doan1,Huyện Lương Tài,,Đường Hàn Thuyên,Bắc Ninh
21.115715,105.994355,VTB,886,11,,qui.nguyen,Huyện Tiên Du,,Đường cao tốc Hà Nội - Bắc Giang,Bắc Ninh
21.125230487804878,105.97311024390241,HDB,110,163,Cây xăng Petrolimex  không sử dụng loa mình,qui.nguyen,Thị xã Từ Sơn,,Đường Minh Khai,Bắc Ninh
21.174308,106.072562,VTB,379,15,,,Thành phố Bắc Ninh,,Đường Nguyễn Đăng Đạo,Bắc Ninh
21.175032500000004,106.07388124999999,TCB,749,37,,manh.do1,Thành phố Bắc Ninh,,Đường Bình Than,Bắc Ninh
21.088907499999998,105.97062000000001,MBB,346,12,,tien.nguyen30,Thị xã Từ Sơn,,Phố Rích Gạo,Bắc Ninh
21.147786666666665,106.11259333333334,AGRIBANK,899,10,,,Thành phố Bắc Ninh,,Đường Đặng Cung,Bắc Ninh
21.154755294117646,106.13855176470588,MBB,289,51,,nam.trinh,Huyện Quế Võ,,Phố Nguyễn Đình Trạch,Bắc Ninh
21.205730833333334,106.08639666666667,VCB,557,39,đã dùng 2 loa bên viettin và tingbox k có nhu cầu và không quan tâm mega,nhat.nguyen17,Thành phố Bắc Ninh,,Đường Bà Chúa Kho,Bắc Ninh
21.2059375,105.98104,VCB,842,32,,cu.tran,Huyện Yên Phong,,Đường Yên Phong 5,Bắc Ninh
21.028272727272729,106.00755090909092,VTB,886,40,,tung.doan1,Huyện Thuận Thành,,Đường Dương Đức Hiền,Bắc Ninh
21.17971857142857,106.06613428571428,VTB,977,30,,nhat.nguyen17,Thành phố Bắc Ninh,,Đường Nguyễn Cao,Bắc Ninh
21.039996249999998,106.0924075,ABB,985,52,,tung.doan1,Huyện Thuận Thành,,Đường Âu Cơ,Bắc Ninh
21.1579325,106.12665,SHINHAN,43,17,,nam.trinh,Huyện Quế Võ,,Phố Nguyễn Ấu Miễn,Bắc Ninh
21.177634285714287,106.06324285714287,BIDV,131,44,,manh.do1,Thành phố Bắc Ninh,,Phố Nguyễn Nhân Thiếp,Bắc Ninh
21.103883749999998,105.9368,AGRIBANK,170,27,,tien.nguyen30,Thị xã Từ Sơn,,Đường Trần Phú,Bắc Ninh
21.085086875,105.988270625,TCB,104,58,,tung.doan1,Huyện Tiên Du,,Đường số 13,Bắc Ninh
21.1521152,106.1349652,MBB,585,89,,nam.trinh,Huyện Quế Võ,,Phố Nguyễn Nghiêu Tư,Bắc Ninh
21.037611111111111,106.09000111111111,VCB,979,31,Cửa hàng đang có sẵn loa,tung.doan1,Huyện Thuận Thành,,Đường Lạc Long Quân,Bắc Ninh
21.135704999999998,105.98883000000001,BIDV,843,17,,tien.nguyen30,Thị xã Từ Sơn,,Đường Tiêu Tương,Bắc Ninh
21.184280625,106.069508125,VTB,637,35,,nhat.nguyen17,Thành phố Bắc Ninh,,Phố Lê Quý Đôn,Bắc Ninh
21.183745714285713,106.07267571428571,MBB,330,22,,,Thành phố Bắc Ninh,,Đường Lê Văn Thịnh,Bắc Ninh
21.205858571428571,105.98106,VCB,391,35,Đã dùng loa tingbox,cu.tran,Huyện Yên Phong,,Đường Yên Phong 5,Bắc Ninh
21.149231428571429,106.11051142857144,VCB,983,49,,hoang.than,Thành phố Bắc Ninh,,Đường Thái Bảo,Bắc Ninh
21.152794999999998,106.13557374999999,MSB,553,32,,nam.trinh,Huyện Quế Võ,,Phố Trần Hữu Tước,Bắc Ninh
21.059300476190479,106.08611571428573,SACOM,132,50,Không tìm thấy cửa hàng,tung.doan1,Huyện Thuận Thành,,Đường Âu Cơ,Bắc Ninh
21.193443333333331,106.05051333333333,VTB,S05,41,,nhat.nguyen17,Thành phố Bắc Ninh,,Đường Thiên Đức,Bắc Ninh
21.18833,106.0172,VTB,730,12,,nhat.nguyen17,Huyện Yên Phong,,Đường An Dương Vương,Bắc Ninh
21.159581578947364,106.14538631578948,TCB,912,67,,nam.trinh,Huyện Quế Võ,,Phố Thế Lữ,Bắc Ninh
21.16641090909091,106.05342545454546,VTB,604,34,,manh.do1,Thành phố Bắc Ninh,,Đường Lê Thái Tổ,Bắc Ninh
21.145995,106.12008,TPB,888,10,,,Thành phố Bắc Ninh,,Ngõ 158 Đường Đa Cấu,Bắc Ninh
21.124940344827589,105.9555124137931,SHB,64,84,Đã có loa ko có nhu cầu,qui.nguyen,Thị xã Từ Sơn,,Đường Nguyễn Văn Cừ,Bắc Ninh
21.14398,106.08833200000001,VCB,132,35,Mc hẹn lắp sau,hoang.than,Thành phố Bắc Ninh,,Đường Đàm Văn Tiết,Bắc Ninh
21.14721,106.11392,TCB,167,16,,,Thành phố Bắc Ninh,,Đường Sơn Đông,Bắc Ninh
21.15378,106.10136714285713,VCB,735,28,,,Thành phố Bắc Ninh,,Đường Đàm Văn Lễ,Bắc Ninh
21.049693076923074,106.17479153846155,MBB,975,34,Cửa hàng đang dùng phần mềm của iPos.Đã có loa theo phần mềm bán hàng.Chủ quán không có ở quán để tư vấn chi tiết,tung.doan1,Huyện Gia Bình,,Phố Doãn Công,Bắc Ninh
21.193812,106.06252099999999,VCB,671,42,,nhat.nguyen17,Thành phố Bắc Ninh,,Đường Tô Hiến Thành,Bắc Ninh
21.028873414634148,106.00654097560977,MBB,289,111,,tung.doan1,Huyện Thuận Thành,,Đường Dương Đức Hiền,Bắc Ninh
21.204421999999997,105.997986,VCB,33,33,,cu.tran,Huyện Yên Phong,,Đường Yên Phong 5,Bắc Ninh
21.152051333333329,106.10245666666667,VTB,886,90,Ko qtam,hoang.than,Thành phố Bắc Ninh,,Đường Núi Bàn Cờ,Bắc Ninh
21.117962499999997,105.97564750000001,VCB,676,11,,tien.nguyen30,Thị xã Từ Sơn,,Đường Lý Thánh Tông,Bắc Ninh
21.175140000000003,106.06119714285714,MBB,3,22,,,Thành phố Bắc Ninh,,Phố Nguyễn Văn Trỗi,Bắc Ninh
21.18074,106.06455,NCB,301,19,,,Thành phố Bắc Ninh,,Đường Trần Hưng Đạo,Bắc Ninh
21.13486142857143,106.12736142857142,AGRIBANK,14,43,Ko tìm thấy kh,lieu.truong,Thành phố Bắc Ninh,,Phố Nguyễn Trọng Mại,Bắc Ninh
21.151218333333333,106.10119666666667,BIDV,838,13,,,Thành phố Bắc Ninh,,Đường Nguyễn Ấu Miễn,Bắc Ninh
21.17635,106.07548,VCB,350,10,,,Thành phố Bắc Ninh,,Đường Trần Hưng Đạo,Bắc Ninh
21.091483333333329,105.97815416666666,TPB,378,59,,qui.nguyen,Thị xã Từ Sơn,,Đường Trần Cố,Bắc Ninh
21.028471,106.007445,MBB,126,31,,tung.doan1,Huyện Thuận Thành,,Đường Dương Đức Hiền,Bắc Ninh
21.012710000000002,106.19726666666666,TCB,666,11,,tung.doan1,Huyện Lương Tài,,Phố Nguyễn Huy Công,Bắc Ninh
21.079852222222222,105.96815666666669,MBB,938,36,,qui.nguyen,Thị xã Từ Sơn,,Đường Lý Thái Tổ,Bắc Ninh
21.147676923076922,106.11618846153847,MBB,484,49,,hoang.than,Thành phố Bắc Ninh,,Đường Đa Cấu,Bắc Ninh
21.166346666666669,106.09785500000001,VPB,353,23,,,Thành phố Bắc Ninh,,Đường Chu Mẫu,Bắc Ninh
21.19382375,106.06252374999998,MBB,666,49,,nhat.nguyen17,Thành phố Bắc Ninh,,Đường Tô Hiến Thành,Bắc Ninh
21.124423333333336,105.97180666666667,BIDV,362,67,Căng tin bệnh viện  đã có loa  ko sử dụng loa mình,qui.nguyen,Thị xã Từ Sơn,,Đường Minh Khai,Bắc Ninh
21.006318,105.999356,VTB,826,20,,tung.doan1,Huyện Thuận Thành,,Ngõ 234 đường Dương Quang,Bắc Ninh
21.044988333333333,106.27438833333333,VCB,309,24,,tung.doan1,Huyện Lương Tài,,Phố Kênh Vàng,Bắc Ninh
21.179185454545454,106.06844363636364,VCB,112,34,,manh.do1,Thành phố Bắc Ninh,,Đường Trần Hưng Đạo,Bắc Ninh
21.160193812154695,106.11174773480663,VTB,HA0,568,Chủ đi vắng,manh.do1,Thành phố Bắc Ninh,,Đường Trần Hưng Đạo,Bắc Ninh
21.175510000000003,106.060945,TCB,207,13,,,Thành phố Bắc Ninh,,Phố Nguyễn Văn Trỗi,Bắc Ninh
21.160415,106.12523749999998,TPB,888,72,Kh không có nhu cầu dùng thêm loa,nam.trinh,Huyện Quế Võ,,Phố Nguyễn Bỉnh Trục,Bắc Ninh
21.17466,106.10517,VTB,F11,27,,nam.trinh,Huyện Quế Võ,,Phố Trần Bình Trọng,Bắc Ninh
21.148226249999997,106.11446624999999,VCB,655,32,,hoang.than,Thành phố Bắc Ninh,,Đường Sơn Đông,Bắc Ninh
21.091613103448271,105.97801275862069,MBB,346,160,,qui.nguyen,Thị xã Từ Sơn,,Đường Trần Cố,Bắc Ninh
21.11024,105.95015333333335,MBB,849,13,,tien.nguyen30,Thị xã Từ Sơn,,Phố Thịnh Lang,Bắc Ninh
21.037984285714284,106.03767571428571,VCB,626,12,,tung.doan1,Huyện Thuận Thành,,Đường Tô Quyền,Bắc Ninh
21.19643,106.0876,TCB,737,11,,,Thành phố Bắc Ninh,,Đường Trần Lựu,Bắc Ninh
21.15373233333333,106.08183266666667,MBB,52,66,mc đã dùng loa bank,hoang.than,Thành phố Bắc Ninh,,Ngõ 856 Đường Đàm Văn Tiết,Bắc Ninh
21.151905999999997,106.102254,MBB,789,43,Ko quan tâm,hoang.than,Thành phố Bắc Ninh,,Đường Núi Bàn Cờ,Bắc Ninh
21.167295454545453,106.06455575757575,BIDV,226,116,,manh.do1,Thành phố Bắc Ninh,,Đường Nguyễn Trãi,Bắc Ninh
21.103457499999998,105.9790025,MBB,160,28,,tien.nguyen30,Thị xã Từ Sơn,,Phố Trung Hòa,Bắc Ninh
21.173405,106.074535,MSB,99,32,,manh.do1,Thành phố Bắc Ninh,,Phố Trần Bình Trọng,Bắc Ninh
21.143618409090909,106.11320386363637,TCB,493,148,Ko quan tâm,hoang.than,Thành phố Bắc Ninh,,Đường Sơn Đông,Bắc Ninh
21.151962857142856,106.10222571428572,MBB,630,59,Đã sử dụng,hoang.than,Thành phố Bắc Ninh,,Đường Núi Bàn Cờ,Bắc Ninh
21.146773333333332,106.11732,TCB,971,22,,,Thành phố Bắc Ninh,,Ngõ 96 Đường Đa Cấu,Bắc Ninh
21.197903,105.954773,TCB,78,33,,cu.tran,Huyện Yên Phong,,Phố Ngô Phúc Tinh,Bắc Ninh
21.14735363636364,106.11407727272727,MBB,558,52,,hoang.than,Thành phố Bắc Ninh,,Đường Sơn Đông,Bắc Ninh
21.199950555555553,105.95628833333333,VTB,333,82,,cu.tran,Huyện Yên Phong,,Ngõ 31 Đường Văn Tiến Dũng,Bắc Ninh
21.180747142857143,106.06555142857144,not defined or m2m,310,42,,nhat.nguyen17,Thành phố Bắc Ninh,,Đường Nguyễn Gia Thiều,Bắc Ninh
21.146225454545455,106.11817181818182,TCB,498,74,Ko tìm thấy mc,hoang.than,Thành phố Bắc Ninh,,Ngõ 106 Đường Đa Cấu,Bắc Ninh
21.14581,106.11809,VTB,634,12,,,Thành phố Bắc Ninh,,Ngõ 106 Đường Đa Cấu,Bắc Ninh
21.193976,106.06279599999999,TCB,144,34,,nhat.nguyen17,Thành phố Bắc Ninh,,Đường Tô Hiến Thành,Bắc Ninh
21.183004285714283,106.06831214285714,BIDV,899,61,,nhat.nguyen17,Thành phố Bắc Ninh,,Phố Ngô Miễn Thiệu,Bắc Ninh
21.147444,106.11412533333332,TCB,118,57,,hoang.than,Thành phố Bắc Ninh,,Đường Sơn Đông,Bắc Ninh
21.152012857142857,106.10692,TCB,14,21,,,Thành phố Bắc Ninh,,Đường Nguyễn Đạt Tế,Bắc Ninh
21.10458,105.98688,VCB,71,19,,qui.nguyen,Huyện Tiên Du,,Đường D5-3,Bắc Ninh
21.0320625,106.0982685,VCB,195,46,Cửa hàng kinh doanh quán game.Đã sử dụng loa ngân hàng.,tung.doan1,Huyện Thuận Thành,,Quốc lộ 38,Bắc Ninh
21.09397588235294,105.97314294117648,MBB,260,51,,qui.nguyen,Thị xã Từ Sơn,,Đường Trần Cố,Bắc Ninh
21.151808571428571,106.14229428571429,MBB,216,33,,nam.trinh,Huyện Quế Võ,,Đường Nguyễn Duy Trinh,Bắc Ninh
21.05607,106.17666,BIDV,21,12,,tung.doan1,Huyện Gia Bình,,Đường Lê Văn Thịnh,Bắc Ninh
21.198269166666662,105.95137333333335,MBB,117,36,,cu.tran,Huyện Yên Phong,,Đường Nguyễn Chí Thanh,Bắc Ninh
21.1807,106.057305,TCB,2,14,,,Thành phố Bắc Ninh,,Đường Lê Phụng Hiểu,Bắc Ninh
21.16639,106.09740428571428,VCB,128,30,Ko thấy cửa hàng,hoang.than,Thành phố Bắc Ninh,,Đường Chu Mẫu,Bắc Ninh
21.187762000000003,105.95501,VCB,101,16,,nhat.nguyen17,Huyện Yên Phong,,Đường Văn Tiến Dũng,Bắc Ninh
21.14567,106.11037666666665,MBB,676,22,,,Thành phố Bắc Ninh,,Đường Thái Bảo,Bắc Ninh
21.059162222222223,106.08990666666666,MBB,364,44,Cửa hàng đang dùng loa Tingbox và loa ngân hàng,tung.doan1,Huyện Thuận Thành,,Đường Hai Bà Trưng,Bắc Ninh
21.139526,106.12129533333334,MBB,466,35,đã có loa MB,nhat.nguyen17,Thành phố Bắc Ninh,,Ngõ 76 Đường Đông Dương,Bắc Ninh
21.1547375,106.1447675,VCB,102,11,,nam.trinh,Huyện Quế Võ,,Đường Trần Hưng Đạo,Bắc Ninh
21.183040000000002,106.06781166666667,VIB,50,28,,,Thành phố Bắc Ninh,,Phố Nguyễn Hữu Nghiêm,Bắc Ninh
21.149272,106.111272,MBB,125,27,,,Thành phố Bắc Ninh,,Đường Đàm Văn Lễ,Bắc Ninh
21.176676666666665,106.05982333333334,ACB,601,10,,,Thành phố Bắc Ninh,,Đường Nguyễn Trãi,Bắc Ninh
21.135495,105.94655499999999,MBB,288,17,,tien.nguyen30,Thị xã Từ Sơn,,Phố Đồng Kỵ 2,Bắc Ninh
21.154020000000003,106.038725,MBB,112,21,,,Thành phố Bắc Ninh,,Phố Nguyễn Bá Lân,Bắc Ninh
21.15584,106.03695,MBB,999,28,,,Thành phố Bắc Ninh,,Ngõ 679 Đường Nguyễn Văn Cừ,Bắc Ninh
21.16407,106.09927666666667,ACB,136,13,,,Thành phố Bắc Ninh,,Đường D2,Bắc Ninh
21.017198571428573,106.20338142857145,TCB,373,19,,tung.doan1,Huyện Lương Tài,,Đường Vũ Giới,Bắc Ninh
21.0492775,106.1735025,BIDV,9V1,22,,tung.doan1,Huyện Gia Bình,,Phố Nguyễn Thanh Bình,Bắc Ninh
21.174036666666666,106.10664666666668,TCB,13,43,,nam.trinh,Huyện Quế Võ,,Phố Thân Nhân Trung,Bắc Ninh
21.10129375,105.93821875,VCB,81,34,,qui.nguyen,Thị xã Từ Sơn,,Đường Lý Huệ Tông,Bắc Ninh
21.149801,105.94556599999999,VTB,978,34,,cu.tran,Thị xã Từ Sơn,,Đường Đàm Viết Kính,Bắc Ninh
21.185480833333337,106.06803583333334,VCB,777,28,,,Thành phố Bắc Ninh,,Đường Âu Cơ,Bắc Ninh
21.194063846153849,106.06476923076923,WOORIBANK,624,25,,,Thành phố Bắc Ninh,,Đường Nguyễn Thị Minh Khai,Bắc Ninh
21.150205,106.10434,MBB,963,41,,hoang.than,Thành phố Bắc Ninh,,Đường Núi Bàn Cờ,Bắc Ninh
21.159724210526317,106.12424105263158,BIDV,134,80,kh ko dùng loa,nam.trinh,Huyện Quế Võ,,Phố Trần Bàn,Bắc Ninh
21.187567272727268,106.06676363636365,VTB,706,30,,nhat.nguyen17,Thành phố Bắc Ninh,,Đường Hồ Ngọc Lân,Bắc Ninh
21.158748333333335,106.06791666666668,TCB,278,55,,manh.do1,Thành phố Bắc Ninh,,Đường Nguyễn Trãi,Bắc Ninh
21.12863,106.00001,VTB,30,11,,qui.nguyen,Huyện Tiên Du,,Đường TS8,Bắc Ninh
21.0370875,106.04957194444442,HDB,125,130,MC cây xăng.Đã có loa.Không tiếp cận được chủ,tung.doan1,Huyện Thuận Thành,,Đường Lạc Long Quân,Bắc Ninh
21.1230925,105.95495125,AGRIBANK,70,63,Đã có loa  không có nhu cầu mua thêm,qui.nguyen,Thị xã Từ Sơn,,Đường Trang Liệt,Bắc Ninh
21.188895,106.016625,TCB,395,18,,nhat.nguyen17,Huyện Yên Phong,,Đường An Dương Vương,Bắc Ninh
21.16098,106.12460666666666,VTB,91,11,,nam.trinh,Huyện Quế Võ,,Phố Trần Bàn,Bắc Ninh
21.159385,106.127365,MBB,997,43,,nam.trinh,Huyện Quế Võ,,Phố Nguyễn Bỉnh Trục,Bắc Ninh
21.132276666666666,106.07634166666666,VTB,180,23,,,Thành phố Bắc Ninh,,Ngõ 21 Phố Nguyễn Đoan Trung,Bắc Ninh
21.193015454545453,105.95451181818183,VCB,531,28,,nhat.nguyen17,Huyện Yên Phong,,Đường Văn Tiến Dũng,Bắc Ninh
21.165883333333333,106.09890666666666,VCB,232,10,,,Thành phố Bắc Ninh,,Ngõ 730 Đường Trần Hưng Đạo,Bắc Ninh
21.102178571428574,105.98182428571428,VTB,577,27,,tien.nguyen30,Thị xã Từ Sơn,,Phố Trung Hòa,Bắc Ninh
21.152765714285714,106.13768095238095,TCB,996,73,,nam.trinh,Huyện Quế Võ,,Phố Nguyễn Đình Trạch,Bắc Ninh
21.046222857142858,106.09381142857143,TCB,60,18,,tung.doan1,Huyện Thuận Thành,,Đường Kinh Dương Vương,Bắc Ninh
21.196087058823533,106.0640905882353,MBB,237,40,,nhat.nguyen17,Thành phố Bắc Ninh,,Đường Âu Cơ,Bắc Ninh
21.174888,106.07028,TCB,829,20,,,Thành phố Bắc Ninh,,Ngách 31B/15 Đường Đại Phúc 24,Bắc Ninh
21.036692352941177,106.08442588235296,BIDV,NC1,38,,tung.doan1,Huyện Thuận Thành,,Đường Lạc Long Quân,Bắc Ninh
21.179196666666666,106.06839,TPB,230,11,,,Thành phố Bắc Ninh,,Đường Trần Hưng Đạo,Bắc Ninh
21.135240952380954,105.94131619047619,VPB,386,46,,cu.tran,Thị xã Từ Sơn,,Phố Tây Am,Bắc Ninh
21.153074,106.14092199999999,MBB,859,62,,nam.trinh,Huyện Quế Võ,,Đường Nguyễn Phong Sắc,Bắc Ninh
21.142416,106.095194,TCB,201,12,,,Thành phố Bắc Ninh,,Đường Đàm Văn Tiết,Bắc Ninh
21.154714285714284,106.14314428571429,TCB,275,46,,nam.trinh,Huyện Quế Võ,,Đường Trần Hưng Đạo,Bắc Ninh
21.113313888888889,105.95519388888889,BIDV,290,47,,qui.nguyen,Thị xã Từ Sơn,,Đường Lê Quang Đạo,Bắc Ninh
21.151556000000003,106.102159,VTB,550,27,,,Thành phố Bắc Ninh,,Đường Núi Bàn Cờ,Bắc Ninh
21.20857,105.96262666666667,VTB,886,13,,nhat.nguyen17,Huyện Yên Phong,,Đường tỉnh 295,Bắc Ninh
21.172552500000002,106.08037625,BIDV,692,60,khách hàng từ chối dùng loa mới,nhat.nguyen17,Thành phố Bắc Ninh,,Phố Nguyễn Phúc Xuyên,Bắc Ninh
21.049416,106.176678,VTB,886,24,,tung.doan1,Huyện Gia Bình,,Đường Cao Lỗ Vương,Bắc Ninh
21.14342615384615,106.09343769230769,VPB,B32,119,cửa hàng đóng.,hoang.than,Thành phố Bắc Ninh,,Đường Đàm Văn Tiết,Bắc Ninh
21.148421428571428,106.07024857142856,TCB,9,31,Không tìm thấy cửa hàng,lieu.truong,Thành phố Bắc Ninh,,Đường Ném Thượng,Bắc Ninh
21.132532499999996,106.07655249999999,TCB,214,15,,,Thành phố Bắc Ninh,,Ngõ 16 Phố Nguyễn Đoan Trung,Bắc Ninh
21.165511,106.098443,VCB,783,27,,,Thành phố Bắc Ninh,,Ngõ 730 Đường Trần Hưng Đạo,Bắc Ninh
21.20635,105.98832571428571,VTB,861,36,,cu.tran,Huyện Yên Phong,,Đường Yên Phong 5,Bắc Ninh
21.125953846153848,105.97404692307693,VTB,430,37,Cửa hàng xe máy Honda  không có nhu cầu mua loa,qui.nguyen,Thị xã Từ Sơn,,Đường Minh Khai,Bắc Ninh
21.1026075,105.93799250000001,VTB,744,16,,tien.nguyen30,Thị xã Từ Sơn,,Đường Lý Huệ Tông,Bắc Ninh
21.187613333333328,106.06592128205128,MBB,684,82,,nhat.nguyen17,Thành phố Bắc Ninh,,Đường Hồ Ngọc Lân,Bắc Ninh
21.1185,106.0847775,VTB,192,36,Cây xăng.Đã có loa,tung.doan1,Huyện Tiên Du,,Quốc lộ 38,Bắc Ninh
21.083669999999998,105.94237000000001,VTB,886,11,,tien.nguyen30,Thị xã Từ Sơn,,Ngõ 305 Đường Ninh Hiệp,Bắc Ninh
21.178233076923078,106.06813461538462,VTB,182,40,,nhat.nguyen17,Thành phố Bắc Ninh,,Đường Ngọc Hân Công Chúa,Bắc Ninh
21.169326363636362,106.06366636363637,VCB,487,27,,,Thành phố Bắc Ninh,,Đường Nguyễn Trãi,Bắc Ninh
21.160466666666668,105.92970083333333,MBB,586,29,,tien.nguyen30,Thị xã Từ Sơn,,Phố Vũ Dự,Bắc Ninh
21.11905,105.95968166666667,MBB,570,12,,tien.nguyen30,Thị xã Từ Sơn,,Đường Nguyễn Văn Cừ,Bắc Ninh
21.151748125,106.147231875,VTB,930,54,kh ko dùng loa,nam.trinh,Huyện Quế Võ,,Đường Nguyễn Phong Sắc,Bắc Ninh
21.154777,106.144463,TCB,983,40,,nam.trinh,Huyện Quế Võ,,Đường Trần Hưng Đạo,Bắc Ninh
21.095363043478265,105.97710869565218,VTB,508,53,,qui.nguyen,Thị xã Từ Sơn,,Phố Nam Miếu,Bắc Ninh
21.035589166666668,106.05961333333333,MBB,865,31,,tung.doan1,Huyện Thuận Thành,,Đường Lạc Long Quân,Bắc Ninh
21.037608518518525,106.03783592592592,VCB,514,80,MC đã có loa chuyển khoản,tung.doan1,Huyện Thuận Thành,,Đường Tô Quyền,Bắc Ninh
21.15415875,106.13838125,MBB,103,21,,nam.trinh,Huyện Quế Võ,,Phố Nguyễn Đình Trạch,Bắc Ninh
21.193693333333332,105.95868333333333,MBB,985,10,,nhat.nguyen17,Huyện Yên Phong,,Đường An Dương Vương,Bắc Ninh
21.1895,106.00855,TCB,706,14,,nhat.nguyen17,Huyện Yên Phong,,Đường An Dương Vương,Bắc Ninh
21.149304285714283,106.11042714285715,TCB,212,18,,,Thành phố Bắc Ninh,,Đường Thái Bảo,Bắc Ninh
21.188028,106.085075,TCB,754,35,khách hàng k có nhu cầu dùng loa,nhat.nguyen17,Thành phố Bắc Ninh,,Ngõ 3 Đường Vũ Ninh,Bắc Ninh
21.018869130434783,106.19859217391304,TCB,29,47,MC sử dụng loa ngân hàng tặng miễn phí,tung.doan1,Huyện Lương Tài,,Đường Phá Lãng,Bắc Ninh
21.1754075,106.06046875,VTB,S05,23,,,Thành phố Bắc Ninh,,Đường Nguyễn Trãi,Bắc Ninh
21.161982941176468,106.02978411764707,TPB,12,42,không tìm thấy,nhat.nguyen17,Thành phố Bắc Ninh,,Ngõ 155 Đường Cầu Rồng,Bắc Ninh
21.128215000000004,105.99990874999999,TCB,852,23,,qui.nguyen,Huyện Tiên Du,,Đường TS8,Bắc Ninh
21.147537142857143,106.07215142857143,TCB,135,30,,manh.do1,Thành phố Bắc Ninh,,Đường Nguyễn Trãi,Bắc Ninh
