lat,lng,bank,tail3,trans,note,pic,district,ward,street,province
20.87626125,106.564996875,VTB,886,35,,vi.dinh,Huyện An Dương,,Quốc lộ 17B,Hải Phòng
20.8447,106.69850000000001,MBB,856,34,,,Quận Ngô Quyền,,Phố An Đà,Hải Phòng
20.851148333333335,106.68075583333334,VPB,183,118,,,Quận Lê Chân,,Phố Hồ Sen,Hải Phòng
20.829683529411763,106.72008470588234,TCB,453,50,,phuong.nguyen50,Quận Hải An,,Phố Ngô Gia Tự,Hải Phòng
20.825831904761905,106.70840142857142,BIDV,391,48,Dùng loa ngân hang,phuong.nguyen50,Quận Hải An,,Phố Cát Bi,Hải Phòng
20.82970071428571,106.69613690476189,TCB,141,101,,vi.dinh,Quận Ngô Quyền,,Phố Thiên Lôi,Hải Phòng
20.922028888888889,106.6832911111111,MBB,666,47,Khách sử dụng loa Ngân Hàng,anh.dao5,Huyện Thủy Nguyên,,Phố Bồ Đề,Hải Phòng
20.922115714285717,106.67936642857143,MBB,412,57,Khách Sử Dụng loa Ngân Hàng cấp,anh.dao5,Huyện Thủy Nguyên,,Phố Trần Quốc Toản,Hải Phòng
20.858428,106.68068899999999,ACB,666,54,Khách dùng loa ngân hàng,hoan.dong,Quận Hồng Bàng,,Phố Kỳ Đồng,Hải Phòng
20.829636,106.67928199999999,TCB,536,40,,vi.dinh,Quận Lê Chân,,Phố Thiên Lôi,Hải Phòng
20.846208333333333,106.69656833333333,TCB,129,17,,,Quận Ngô Quyền,,Đường vòng Hồ An Biên,Hải Phòng
20.835028888888885,106.69091333333333,MBB,687,32,,,Quận Lê Chân,,Đường Kênh Dương (Quán Nam),Hải Phòng
20.845330909090912,106.70072272727272,TCB,11,39,,vi.dinh,Quận Ngô Quyền,,Phố An Đà,Hải Phòng
20.856403333333336,106.68247,TCB,328,42,Ngân hàng tặng loa,hoan.dong,Quận Hồng Bàng,,Phố Đinh Tiên Hoàng,Hải Phòng
20.816794545454545,106.62542909090908,not defined or m2m,261,33,,linh.nguyen46,Quận Kiến An,,Phố Hoàng Thiết Tâm,Hải Phòng
20.822382222222224,106.66154955555557,MBB,559,165,,vi.dinh,Quận Kiến An,,Đường Bùi Viện,Hải Phòng
20.813454,106.625814,ACB,368,15,,,Quận Kiến An,,Phố Trần Thành Ngọ,Hải Phòng
20.833654,106.679873,TCB,19,36,,vi.dinh,Quận Lê Chân,,Đường Nguyễn Văn Linh,Hải Phòng
20.834135000000003,106.692252,MBB,3,34,,,Quận Lê Chân,,Phố Lê Văn Thuyết,Hải Phòng
20.831955,106.66095833333333,VTB,606,21,,,Quận Kiến An,,Phố Việt Đức,Hải Phòng
20.726107499999998,106.556955,MBB,882,15,,,Huyện Tiên Lãng,,Phố Trung Lãng,Hải Phòng
20.922138750000002,106.67928875000001,TCB,230,23,,,Huyện Thủy Nguyên,,Phố Trần Quốc Toản,Hải Phòng
20.794074545454549,106.54888545454544,TCB,132,49,,,Huyện An Lão,,Trạm dừng nghỉ V77 Hải Phòng,Hải Phòng
20.859868461538461,106.68363846153846,OCB,407,39,,vi.dinh,Quận Hồng Bàng,,Phố Trần Quang Khải,Hải Phòng
20.861302222222225,106.70492999999999,VIB,232,25,,,Quận Ngô Quyền,,Đường Đà Nẵng,Hải Phòng
20.845422499999998,106.68584,VTB,585,12,,,Quận Lê Chân,,Phố Hàng Kênh,Hải Phòng
20.822351702127659,106.6363414893617,VPB,506,121,Khách được tặng loa ngân hàng,linh.nguyen46,Quận Kiến An,,Đường Lê Duẩn,Hải Phòng
20.846821249999998,106.69119375,VPB,973,41,,,Quận Ngô Quyền,,Phố Lạch Tray,Hải Phòng
20.821889729729733,106.5611318918919,TCB,364,124,,vi.dinh,Huyện An Lão,,Đường Trần Tất Văn,Hải Phòng
20.893764,106.604786,MBB,644,18,,,Quận Hồng Bàng,,Phố Hải Triều,Hải Phòng
20.852716800000007,106.68889999999999,VPB,6A7,72,,,Quận Ngô Quyền,,Phố Chu Văn An,Hải Phòng
20.644420999999998,106.53352,AGRIBANK,532,23,,,Huyện Vĩnh Bảo,,Đường Nguyễn Bỉnh Khiêm,Hải Phòng
20.811376,106.741613,TCB,18,43,Mc dùng loa hkd,phuong.nguyen50,Quận Hải An,,Phố Cát Linh,Hải Phòng
20.870922,106.5776185,MSB,436,82,,anh.dao5,Huyện An Dương,,Quốc lộ 17B,Hải Phòng
20.644635555555553,106.53372222222222,AGRIBANK,279,32,,vi.dinh,Huyện Vĩnh Bảo,,Đường Trung Tân,Hải Phòng
20.841674,106.693572,MBB,732,34,,,Quận Ngô Quyền,,Phố Lạch Tray,Hải Phòng
20.822326666666665,106.65817400000002,MBB,70,38,Không tìm thấy mã đó,linh.nguyen46,Quận Kiến An,,Phố Đồng Tâm,Hải Phòng
20.849614230769234,106.68919769230769,VCB,291,68,,,Quận Ngô Quyền,,Phố Lạch Tray,Hải Phòng
20.837666666666664,106.69223333333333,VCB,422,10,,,Quận Lê Chân,,Phố Nguyễn Bình,Hải Phòng
20.861192631578948,106.71929052631579,PVCOM,2,62,Không tìm thấy mc,phuong.nguyen50,Quận Hải An,,Đường Đà Nẵng,Hải Phòng
20.858373571428572,106.68215428571428,VCCB,600,37,Khách không tin tưởng  nghi lừa đảo,hoan.dong,Quận Hồng Bàng,,Phố Đinh Tiên Hoàng,Hải Phòng
20.861010666666669,106.68239200000001,TCB,986,56,,vi.dinh,Quận Hồng Bàng,,Phố Đinh Tiên Hoàng,Hải Phòng
20.865055714285717,106.69519857142858,MBB,638,15,,,Quận Ngô Quyền,,Phố Nguyễn Trãi,Hải Phòng
20.835576153846155,106.69570076923077,SeABank,802,24,,,Quận Lê Chân,,Phố Hào Khê,Hải Phòng
20.84207842105263,106.66796789473685,VTB,683,81,,,Quận Lê Chân,,Phố Trần Nguyên Hãn,Hải Phòng
20.894520833333331,106.6730625,MBB,298,26,,,Huyện Thủy Nguyên,,Phố Mới,Hải Phòng
20.838845,106.68273875,VTB,586,20,,,Quận Lê Chân,,Phố Hồ Sen,Hải Phòng
20.818477500000004,106.57652333333333,VTB,F11,50,,,Huyện An Lão,,Tỉnh lộ 360,Hải Phòng
20.9237625,106.657805,MBB,536,12,,,Huyện Thủy Nguyên,,Đường 25 Tháng 10,Hải Phòng
20.855247666666667,106.67695466666667,MBB,666,90,Khách dùng loa MB,hoan.dong,Quận Hồng Bàng,,Phố Nguyễn Đức Cảnh,Hải Phòng
20.845047,106.69991266666665,not defined or m2m,666,67,,,Quận Ngô Quyền,,Phố An Đà,Hải Phòng
20.754707999999997,106.66837266666667,TCB,946,61,,,Huyện Kiến Thụy,,Phố Thọ Xuân,Hải Phòng
20.79428625,106.678601875,VPB,964,37,,vi.dinh,Quận Dương Kinh,,Đường Mạc Đăng Doanh,Hải Phòng
20.829079999999998,106.68462749999999,VCB,976,126,,,Quận Lê Chân,,Đường Võ Nguyên Giáp,Hải Phòng
20.83128,106.6922825,TCB,10,11,,,Quận Lê Chân,,Ngõ 225 hào Khê,Hải Phòng
20.839945,106.68248083333334,TCB,949,55,,vi.dinh,Quận Lê Chân,,Phố Hồ Sen,Hải Phòng
20.878666,106.56094700000001,TCB,660,43,Khách sử dụng loa ngân hàng,anh.dao5,Huyện An Dương,,Quốc lộ 17B,Hải Phòng
20.851208039215692,106.68074980392156,VPB,565,163,,,Quận Lê Chân,,Phố Tô Hiệu,Hải Phòng
20.851153846153846,106.73298923076922,MBB,334,59,Mc chuyển địa điểm kd,phuong.nguyen50,Quận Hải An,,Đường Kiều Hạ,Hải Phòng
20.861010555555552,106.70678666666667,VIB,103,75,,,Quận Ngô Quyền,,Ngõ 258 Đà Nẵng,Hải Phòng
20.79368476190476,106.52056999999999,AGRIBANK,689,79,,vi.dinh,Huyện An Lão,,Quốc lộ 10,Hải Phòng
20.898837499999996,106.67370625,SHB,K49,30,,vi.dinh,Huyện Thủy Nguyên,,thôn 1,Hải Phòng
20.88091,106.55395599999999,VTB,778,36,,anh.dao5,Huyện An Dương,,Quốc lộ 17B,Hải Phòng
20.85939888888889,106.69025888888889,TCB,888,37,,,Quận Ngô Quyền,,Phố Lương Khánh Thiện (Phố Ga),Hải Phòng
20.832472000000003,106.6929728,VTB,991,89,,,Quận Lê Chân,,Phố Hào Khê,Hải Phòng
20.830348571428573,106.67854285714286,TCB,921,27,,,Quận Lê Chân,,Ngõ 453 thiên Lôi,Hải Phòng
20.839555,106.66919999999999,MBB,510,10,,,Quận Lê Chân,,Phố Thiên Lôi,Hải Phòng
20.834502666666666,106.669294,MBB,804,40,,vi.dinh,Quận Lê Chân,,Đường Nguyễn Văn Linh,Hải Phòng
20.82909,106.68460235294117,VCB,724,117,,,Quận Lê Chân,,Đường Võ Nguyên Giáp,Hải Phòng
20.816794545454545,106.62542909090908,not defined or m2m,261,33,,vi.dinh,Quận Kiến An,,Phố Hoàng Thiết Tâm,Hải Phòng
20.846651333333334,106.71722933333334,TCB,999,43,,vi.dinh,Quận Hải An,,Phố Nguyễn Thiếp,Hải Phòng
20.876479999999997,106.5647,WOORIBANK,620,36,,vi.dinh,Huyện An Dương,,Quốc lộ 17B,Hải Phòng
20.861448333333332,106.69248999999999,MBB,440,19,,,Quận Ngô Quyền,,Vòng xuyến Máy Tơ,Hải Phòng
20.829653333333333,106.686125,TPB,999,11,,,Quận Lê Chân,,Phố Nguyễn Tất Tố,Hải Phòng
20.809424117647058,106.62398705882353,TCB,720,44,,vi.dinh,Quận Kiến An,,Phố Phan Đăng Lưu,Hải Phòng
20.843086,106.67536,TCB,697,15,,,Quận Lê Chân,,Phố Chùa Hàng,Hải Phòng
20.889037096774192,106.66698258064517,MBB,220,113,Cây Xăng,anh.dao5,Huyện Thủy Nguyên,,Đường tỉnh 352,Hải Phòng
20.83061727272727,106.67894818181819,VPB,692,44,,,Quận Lê Chân,,Ngõ 453 thiên Lôi,Hải Phòng
20.844684285714283,106.69833571428572,SHB,894,27,,,Quận Ngô Quyền,,Phố An Đà,Hải Phòng
20.85991,106.66677857142857,TCB,951,29,,,Quận Hồng Bàng,,Phố Hùng Duệ Vương,Hải Phòng
20.846426666666666,106.69678466666667,TCB,313,40,,vi.dinh,Quận Ngô Quyền,,Đường vòng Hồ An Biên,Hải Phòng
20.83672,106.63651,MBB,550,14,,,Huyện An Dương,,Đường Nguyễn Trường Tộ,Hải Phòng
20.861253333333334,106.70734125000001,TCB,236,63,,,Quận Ngô Quyền,,Đường Đà Nẵng,Hải Phòng
20.83911,106.69748636363634,VTB,213,31,,,Quận Ngô Quyền,,Phố Nguyễn Bình,Hải Phòng
20.721808974358972,106.78304461538461,VTB,F11,103,,,Quận Đồ Sơn,,Phố Nguyễn Hữu Cầu,Hải Phòng
20.829704,106.725364,MBB,5,13,,,Quận Hải An,,Ngõ 810 Ngô Gia Tự,Hải Phòng
20.848062499999997,106.67156125,MBB,183,35,,vi.dinh,Quận Lê Chân,,Phố Trần Nguyên Hãn,Hải Phòng
20.85723875,106.69129875,MBB,330,32,,vi.dinh,Quận Ngô Quyền,,Phố Lê Lợi,Hải Phòng
20.82907333333333,106.70738333333334,MBB,448,24,,,Quận Hải An,,Phố Ngô Gia Tự,Hải Phòng
20.859163333333331,106.68141333333332,NCB,501,24,,,Quận Hồng Bàng,,Phố Hoàng Văn Thụ,Hải Phòng
20.836672380952379,106.68320666666666,VCB,965,51,,,Quận Lê Chân,,Phố Hồ Sen,Hải Phòng
20.847502368421054,106.671715,TPB,888,93,,vi.dinh,Quận Lê Chân,,Phố Trần Nguyên Hãn,Hải Phòng
20.827864285714288,106.68158428571428,TCB,653,18,,,Quận Lê Chân,,Phố Thiên Lôi,Hải Phòng
20.865178999999998,106.580769,TCB,82,29,,,Huyện An Dương,,Quốc lộ 17B,Hải Phòng
20.835072307692307,106.68935999999998,VPB,390,62,,vi.dinh,Quận Lê Chân,,Phố Ngô Kim Tài,Hải Phòng
20.74172,106.660924,MBB,669,34,,,Huyện Kiến Thụy,,Phố Mạc Thái Tổ,Hải Phòng
20.8548925,106.67527083333333,MBB,28,37,,vi.dinh,Quận Hồng Bàng,,Phố Nguyễn Đức Cảnh,Hải Phòng
20.844035625,106.68970937499999,MBB,666,37,,,Quận Lê Chân,,Phố Đình Đông,Hải Phòng
20.855396470588232,106.67994647058823,MBB,159,37,,vi.dinh,Quận Lê Chân,,Phố Mê Linh,Hải Phòng
20.923588461538465,106.68598076923077,TCB,1,26,,,Huyện Thủy Nguyên,,Phố Bồ Đề,Hải Phòng
20.836332666666671,106.701826,MBB,918,56,,vi.dinh,Quận Ngô Quyền,,Phố Đỗ Nhuận,Hải Phòng
20.842938888888884,106.69078055555556,TCB,505,43,,vi.dinh,Quận Lê Chân,,Phố Đình Đông,Hải Phòng
20.85857,106.69261,TCB,455,10,,,Quận Ngô Quyền,,Phố Lê Lợi,Hải Phòng
20.848105714285712,106.68551142857143,not defined or m2m,603,43,,,Quận Lê Chân,,Phố Hàng Kênh,Hải Phòng
20.868202500000002,106.65200583333333,TCB,652,43,Khách dùng loa ngân hàng,hoan.dong,Quận Hồng Bàng,,Đường Tôn Đức Thắng,Hải Phòng
20.834535,106.6889772,MBB,186,187,,vi.dinh,Quận Lê Chân,,lối vào ktx,Hải Phòng
20.8441,106.67378,VIB,978,10,,,Quận Lê Chân,,Phố Hoàng Minh Thảo,Hải Phòng
20.836549166666668,106.69589111111111,MSB,144,99,,vi.dinh,Quận Lê Chân,,Phố Hào Khê,Hải Phòng
20.866159615384621,106.61109192307693,TCB,871,60,,vi.dinh,Huyện An Dương,,Quốc lộ 17B,Hải Phòng
20.826994210526315,106.68300789473683,VTB,955,54,,vi.dinh,Quận Lê Chân,,Phố Thiên Lôi,Hải Phòng
20.846015,106.563395,VCB,320,12,,,Huyện An Lão,,Quốc lộ 10,Hải Phòng
20.843690000000002,106.693682,TCB,616,41,,vi.dinh,Quận Ngô Quyền,,Phố An Đà,Hải Phòng
20.811678571428573,106.62102238095237,TCB,692,66,,vi.dinh,Quận Kiến An,,Phố Khúc Trì,Hải Phòng
20.838735333333329,106.69619333333331,VCB,877,47,,vi.dinh,Quận Ngô Quyền,,Phố Nguyễn Bình,Hải Phòng
20.832583333333336,106.69803,VCB,937,11,,,Quận Ngô Quyền,,Nam Pháp 2,Hải Phòng
20.805462499999997,106.639585,MBB,28,23,,,Quận Kiến An,,Phố Kha Lâm,Hải Phòng
20.828388,106.715988,ACB,568,16,,,Quận Hải An,,Ngoõ 618 Ngô Gia Tự,Hải Phòng
20.845824705882354,106.69167882352941,MBB,584,71,,vi.dinh,Quận Ngô Quyền,,Phố Lạch Tray,Hải Phòng
20.877969285714283,106.56170071428572,TCB,954,36,Khách sử dụng loa ngân hàng,anh.dao5,Huyện An Dương,,Quốc lộ 17B,Hải Phòng
20.811835121951219,106.62410902439026,MBB,847,82,Khách đăng ký loa ngân hàng,linh.nguyen46,Quận Kiến An,,Phố Hòa Bình,Hải Phòng
20.843130666666664,106.67878733333335,BIDV,0V1,28,,,Quận Lê Chân,,Phố Miếu Hai Xã,Hải Phòng
20.82281,106.68529,BIDV,472,14,,,Quận Lê Chân,,Đường Bùi Viện,Hải Phòng
20.839339090909093,106.69480333333334,HDB,48,133,,,Quận Ngô Quyền,,Phố Lạch Tray,Hải Phòng
20.847934615384617,106.71182384615385,BIDV,555,38,K tìm thấy mc,phuong.nguyen50,Quận Hải An,,Đường Quanh Hồ Phương Lưu,Hải Phòng
20.854833,106.68501,MBB,674,19,,,Quận Ngô Quyền,,Phố Lương Khánh Thiện (Phố Ga),Hải Phòng
20.8447,106.69850000000001,MBB,856,34,,vi.dinh,Quận Ngô Quyền,,Phố An Đà,Hải Phòng
20.83305571428571,106.69766857142857,MBB,920,42,,,Quận Ngô Quyền,,Phố Lạch Tray,Hải Phòng
20.81174,106.62395363636364,TCB,32,31,,vi.dinh,Quận Kiến An,,Phố Phan Đăng Lưu,Hải Phòng
20.726428125,106.554971875,VTB,886,42,,vi.dinh,Huyện Tiên Lãng,,Phố Minh Đức,Hải Phòng
20.84936,106.6660544,TCB,994,55,,,Quận Lê Chân,,Phố Phạm Huy Thông,Hải Phòng
20.887979333333334,106.68575533333333,MBB,294,47,,vi.dinh,Huyện Thủy Nguyên,,Hữu Quan,Hải Phòng
20.851642222222225,106.68997444444445,TCB,363,24,,,Quận Ngô Quyền,,Phố Chu Văn An,Hải Phòng
20.8922725,106.60441083333333,MBB,712,38,Bán gần Lead Scout,hoan.dong,Quận Hồng Bàng,,Phố Hải Triều,Hải Phòng
20.853278,106.684851,VTB,886,23,,,Quận Ngô Quyền,,Phố Cầu Đất,Hải Phòng
20.873253,106.63112100000001,VTB,946,26,,,Quận Hồng Bàng,,Phố Trương Văn Lực,Hải Phòng
20.861306363636363,106.69624636363636,MSB,66,33,,,Quận Ngô Quyền,,Đường Đà Nẵng,Hải Phòng
20.84497846153846,106.69968076923077,BIDV,372,28,,,Quận Ngô Quyền,,Phố An Đà,Hải Phòng
20.907845,106.67939428571428,VPB,600,39,,anh.dao5,Huyện Thủy Nguyên,,Phố Trần Hưng Đạo,Hải Phòng
20.726671111111109,106.55622777777776,VTB,123,85,,vi.dinh,Huyện Tiên Lãng,,Phố Minh Đức,Hải Phòng
20.845887272727275,106.69169909090908,MBB,967,24,,,Quận Ngô Quyền,,Phố Lạch Tray,Hải Phòng
20.831762727272725,106.69914181818181,MSB,241,41,,,Quận Ngô Quyền,,Nam Pháp 2,Hải Phòng
20.728364000000003,106.557718,TCB,437,27,,,Huyện Tiên Lãng,,Phố Minh Đức,Hải Phòng
20.8432225,106.685834375,MBB,206,53,,,Quận Lê Chân,,Phố Chợ Hàng,Hải Phòng
20.837070625,106.643741875,VCB,465,69,Khách đã sử dụng loa,anh.dao5,Huyện An Dương,,Ngõ dân sinh 3,Hải Phòng
20.84848,106.66667666666666,VTB,18,31,,,Quận Lê Chân,,Đường Tôn Đức Thắng,Hải Phòng
20.846836875000005,106.69117125,VPB,562,52,,,Quận Ngô Quyền,,Phố Lạch Tray,Hải Phòng
20.830968666666671,106.70295733333332,VTB,939,62,,vi.dinh,Quận Hải An,,Phố Văn Cao,Hải Phòng
20.8615775,106.6667775,VIB,605,10,,,Quận Hồng Bàng,,Phố Hùng Duệ Vương,Hải Phòng
20.858355833333331,106.68622083333334,VCB,301,34,Không tìm thấy điểm bán,hoan.dong,Quận Hồng Bàng,,Phố Trần Phú,Hải Phòng
20.836712631578951,106.68949894736843,TCB,76,61,,,Quận Lê Chân,,Đường Kênh Dương (Quán Nam),Hải Phòng
20.780415555555557,106.51549111111112,MBB,298,20,,,Huyện Tiên Lãng,,Quốc lộ 10,Hải Phòng
20.835046666666667,106.6907346296296,BIDV,380,184,,vi.dinh,Quận Lê Chân,,Đường Kênh Dương (Quán Nam),Hải Phòng
20.84630052631579,106.68369210526316,MBB,684,60,,vi.dinh,Quận Lê Chân,,Phố Nguyễn Công Trứ,Hải Phòng
20.821999999999996,106.56243052631579,TCB,269,39,,vi.dinh,Huyện An Lão,,Đường Trần Tất Văn,Hải Phòng
20.839505,106.695185,TCB,492,10,,,Quận Ngô Quyền,,Phố Lạch Tray,Hải Phòng
20.842105999999998,106.667977,VTB,113,35,,vi.dinh,Quận Lê Chân,,Phố Trần Nguyên Hãn,Hải Phòng
20.861768787878791,106.67344136363634,VCB,517,158,Khách sợ lừa đảo,hoan.dong,Quận Hồng Bàng,,Phố Bạch Đằng,Hải Phòng
20.83257,106.69800333333333,VCB,182,12,,,Quận Ngô Quyền,,Phố Lạch Tray,Hải Phòng
20.876479999999997,106.5647,WOORIBANK,620,36,Khách hàng sử dụng loa ngân hàng,anh.dao5,Huyện An Dương,,Quốc lộ 17B,Hải Phòng
20.862657619047621,106.65706809523809,TCB,358,58,Ngân hàng tặng loa,hoan.dong,Quận Hồng Bàng,,Đường đê Quai Chảo,Hải Phòng
20.825831904761905,106.70840142857142,BIDV,391,48,,vi.dinh,Quận Hải An,,Phố Cát Bi,Hải Phòng
20.8257575,106.655785,VCB,238,14,,,Quận Kiến An,,Cầu Lãm Khê,Hải Phòng
20.839685000000003,106.695535,TCB,386,13,,,Quận Ngô Quyền,,Ngõ dân sinh,Hải Phòng
20.856018,106.687246,VIB,G03,33,,,Quận Ngô Quyền,,Phố Lương Khánh Thiện (Phố Ga),Hải Phòng
20.86305,106.61902,TCB,645,11,,,Huyện An Dương,,Đường Máng Nước,Hải Phòng
20.861295714285713,106.703635,SHB,793,30,,,Quận Ngô Quyền,,Đường Đà Nẵng,Hải Phòng
20.80604125,106.624248125,TCB,427,59,Không tồn tại,linh.nguyen46,Quận Kiến An,,Phố Phan Đăng Lưu,Hải Phòng
20.823772,106.712012,NCB,401,15,,,Quận Hải An,,Phố Lý Hồng Nhật,Hải Phòng
20.854568571428572,106.56940428571428,VCB,889,25,,,Huyện An Dương,,Quốc lộ 10,Hải Phòng
20.832266764705885,106.70479764705881,MBB,162,103,,phuong.nguyen50,Quận Hải An,,Ngõ 225 Ngô Gia Tự,Hải Phòng
20.880651249999996,106.61218374999999,MBB,365,32,,vi.dinh,Huyện An Dương,,Đường Cống Mỹ,Hải Phòng
20.836334166666674,106.69611916666663,TCB,646,52,,,Quận Ngô Quyền,,Phố Lạch Tray,Hải Phòng
20.831886666666666,106.72755999999998,VCB,328,39,,vi.dinh,Quận Hải An,,Phố Lũng Đông,Hải Phòng
20.880450909090907,106.55688818181818,TCB,862,27,,,Huyện An Dương,,Quốc lộ 17B,Hải Phòng
20.67076,106.46871,MBB,896,13,,,Huyện Vĩnh Bảo,,Quốc lộ 10,Hải Phòng
20.827638,106.681882,MBB,996,14,,,Quận Lê Chân,,Phố Thiên Lôi,Hải Phòng
20.80534625,106.63117000000001,MBB,111,30,Không tìm thấy,linh.nguyen46,Quận Kiến An,,Phố Nguyễn Xiển,Hải Phòng
20.853287272727272,106.68486818181817,TCB,529,24,,,Quận Ngô Quyền,,Ngõ 145 Cầu Đất,Hải Phòng
20.814477777777778,106.62591555555555,TCB,877,16,,,Quận Kiến An,,Phố Máy Xay,Hải Phòng
20.832869666666667,106.68476983333332,VPB,611,157,,vi.dinh,Quận Lê Chân,,Phố Đào Nhuận,Hải Phòng
20.822382222222224,106.66154955555557,MBB,559,165,Không tìm thấy điểm bán,linh.nguyen46,Quận Kiến An,,Đường Bùi Viện,Hải Phòng
20.8587975,106.69514000000001,VCB,701,20,,,Quận Ngô Quyền,,Đường đi bộ quanh hồ Tiên Nga,Hải Phòng
20.835424782608698,106.69641000000001,MBB,223,133,,vi.dinh,Quận Ngô Quyền,,Phố Lạch Tray,Hải Phòng
20.858865238095238,106.64059095238096,TCB,614,42,Khách sử dụng loa ngân hàng,anh.dao5,Huyện An Dương,,Đường Máng Nước,Hải Phòng
20.82732,106.707815,VTB,S01,14,,,Quận Hải An,,Phố Trần Văn Lan,Hải Phòng
20.838443181818182,106.69523954545453,BIDV,158,52,,vi.dinh,Quận Ngô Quyền,,Phố Nguyễn Bình,Hải Phòng
20.837599,106.70062700000001,MSB,946,35,,vi.dinh,Quận Ngô Quyền,,Phố Văn Cao,Hải Phòng
20.836074705882353,106.6829823529412,VTB,671,31,,,Quận Lê Chân,,Phố Hồ Sen,Hải Phòng
20.836320505050505,106.68986979797981,BIDV,210,298,,vi.dinh,Quận Lê Chân,,Đường Kênh Dương (Quán Nam),Hải Phòng
20.765956,106.73796200000001,TCB,982,15,,,Quận Dương Kinh,,Đường Phạm Văn Đồng,Hải Phòng
20.876230952380954,106.56504476190476,ACB,757,79,,vi.dinh,Huyện An Dương,,Quốc lộ 17B,Hải Phòng
20.829073809523809,106.6846338095238,VCB,185,72,,,Quận Lê Chân,,Đường Võ Nguyên Giáp,Hải Phòng
20.83161875,106.703185625,MBB,952,36,Mc loa ngân hàng,phuong.nguyen50,Quận Hải An,,Phố An Trung,Hải Phòng
20.82866,106.70161333333333,MBB,600,11,,,Quận Hải An,,Phố Cát Bi,Hải Phòng
20.849861249999996,106.6739225,BIDV,400,29,,,Quận Lê Chân,,Phố Tô Hiệu,Hải Phòng
20.877863333333334,106.56191666666666,MBB,888,22,,,Huyện An Dương,,Quốc lộ 17B,Hải Phòng
20.850594375000004,106.718485,MBB,854,34,,vi.dinh,Quận Hải An,,Phố Phủ Thượng Đoạn,Hải Phòng
20.822785,106.5589675,VTB,321,15,,,Huyện An Lão,,Phố Lê Lợi,Hải Phòng
20.859547142857142,106.69360714285715,BIDV,178,11,,,Quận Ngô Quyền,,Phố Lê Lợi,Hải Phòng
20.821948,106.6678735,VPB,344,47,Đang làm đường nên quán chuyển. Ko còn ở điểm bán đó,linh.nguyen46,Quận Kiến An,,Đường Bùi Viện,Hải Phòng
20.846903333333334,106.69117833333334,KLB,eo2,35,,,Quận Ngô Quyền,,Phố Lạch Tray,Hải Phòng
20.84496,106.69206279411766,TCB,189,248,,vi.dinh,Quận Ngô Quyền,,Phố Lạch Tray,Hải Phòng
20.859573902439024,106.67956926829268,TCB,77,107,,vi.dinh,Quận Hồng Bàng,,Phố Lý Thường Kiệt,Hải Phòng
20.829991999999997,106.72483466666667,SHB,719,46,,phuong.nguyen50,Quận Hải An,,Phố Ngô Gia Tự,Hải Phòng
20.923983939393938,106.65349272727273,SACOM,9,121,,anh.dao5,Huyện Thủy Nguyên,,Đường 25 Tháng 10,Hải Phòng
20.860238333333335,106.69437833333333,MBB,630,29,,,Quận Ngô Quyền,,Phố Lê Lợi,Hải Phòng
20.835593333333332,106.69644333333333,MBB,122,22,,,Quận Ngô Quyền,,Phố Lạch Tray,Hải Phòng
20.826292222222222,106.70709111111111,TCB,333,23,,,Quận Hải An,,Phố Cát Bi,Hải Phòng
20.856599444444441,106.67725611111112,TCB,980,63,Khách dùng loa ngân hàng,hoan.dong,Quận Hồng Bàng,,Phố Trạng Trình,Hải Phòng
20.80445,106.624324375,TCB,928,33,Khách được NCB tặng loa,linh.nguyen46,Quận Kiến An,,Phố Phan Đăng Lưu,Hải Phòng
20.922436296296297,106.64344037037036,VTB,886,76,KH sử dụng loa Ngân Hàng,anh.dao5,Huyện Thủy Nguyên,,Đường tỉnh 352,Hải Phòng
20.84630052631579,106.68369210526316,MBB,684,60,,,Quận Lê Chân,,Phố Nguyễn Công Trứ,Hải Phòng
20.822538888888889,106.55874888888889,MBB,o8m,11,,,Huyện An Lão,,Phố Lê Lợi,Hải Phòng
20.811376,106.741613,TCB,18,43,,vi.dinh,Quận Hải An,,Phố Cát Linh,Hải Phòng
20.838803461538461,106.69619384615383,MBB,958,63,,,Quận Ngô Quyền,,Phố Nguyễn Bình,Hải Phòng
20.858844375000007,106.67115979166667,VTB,702,119,Không tìm thấy cửa hàng,hoan.dong,Quận Hồng Bàng,,Phố Cao Thắng,Hải Phòng
20.856419166666665,106.68238916666667,VTB,545,37,,vi.dinh,Quận Hồng Bàng,,Phố Đinh Tiên Hoàng,Hải Phòng
20.808953684210525,106.62410526315787,TCB,239,43,,vi.dinh,Quận Kiến An,,Phố Phan Đăng Lưu,Hải Phòng
20.841903333333335,106.68237333333333,MSB,606,40,,vi.dinh,Quận Lê Chân,,Phố Hồ Sen,Hải Phòng
20.870920909090909,106.57763727272729,VPB,405,30,,vi.dinh,Huyện An Dương,,Quốc lộ 17B,Hải Phòng
20.8349575,106.69995750000001,SCB,888,14,,,Quận Ngô Quyền,,Ngõ 174 Văn Cao,Hải Phòng
20.835325,106.69669999999999,SeABank,196,11,,,Quận Ngô Quyền,,Phố Lạch Tray,Hải Phòng
20.859327999999998,106.693397,MBB,890,29,,,Quận Ngô Quyền,,Phố Lê Lợi,Hải Phòng
20.828902307692307,106.75806461538461,VCB,539,53,,phuong.nguyen50,Quận Hải An,,Đường Mạc Thái Tổ,Hải Phòng
20.794083333333329,106.54910666666667,VCB,744,30,,vi.dinh,Huyện An Lão,,Trạm dừng nghỉ V77 Hải Phòng,Hải Phòng
20.848937499999998,106.66877375,ACB,607,26,,,Quận Lê Chân,,Đường Tôn Đức Thắng,Hải Phòng
20.829004166666664,106.71194833333334,TCB,746,37,,vi.dinh,Quận Hải An,,Phố Ngô Gia Tự,Hải Phòng
20.856717500000002,106.686755,MBB,9,23,,,Quận Ngô Quyền,,Phố Phạm Ngũ Lão,Hải Phòng
20.863557368421052,106.65933736842105,TCB,435,84,Ngân hàng tặng loa,hoan.dong,Quận Hồng Bàng,,Đường Hồng Bàng,Hải Phòng
20.8438,106.71632,MBB,200,11,,,Quận Hải An,,Phố Chợ Lũng,Hải Phòng
20.8291275,106.6846475,VCB,696,41,,,Quận Lê Chân,,Đường Võ Nguyên Giáp,Hải Phòng
20.852070769230767,106.67438307692306,TPB,501,41,,vi.dinh,Quận Lê Chân,,Phố Hai Bà Trưng (Cát Dài),Hải Phòng
20.829127142857139,106.68455904761905,VCB,697,63,,vi.dinh,Quận Lê Chân,,Đường Võ Nguyên Giáp,Hải Phòng
20.85317,106.68475,MBB,616,14,,,Quận Ngô Quyền,,Phố Cầu Đất,Hải Phòng
20.84540125,106.56262625,MBB,68,30,,,Huyện An Lão,,Quốc lộ 10,Hải Phòng
20.85833,106.69501,VIB,840,30,,vi.dinh,Quận Ngô Quyền,,Đường đi bộ quanh hồ Tiên Nga,Hải Phòng
20.848884285714284,106.69012571428571,MBB,704,22,,,Quận Ngô Quyền,,Phố Lạch Tray,Hải Phòng
20.868202500000002,106.65200583333333,TCB,652,43,,vi.dinh,Quận Hồng Bàng,,Đường Tôn Đức Thắng,Hải Phòng
20.82970071428571,106.69613690476189,TCB,141,101,,,Quận Ngô Quyền,,Phố Thiên Lôi,Hải Phòng
20.846721666666667,106.7172175,MBB,610,33,,vi.dinh,Quận Hải An,,Phố Nguyễn Thiếp,Hải Phòng
20.880935,106.55349833333334,VPB,286,23,,,Huyện An Dương,,Quốc lộ 17B,Hải Phòng
20.835689999999996,106.690425,MBB,816,30,,vi.dinh,Quận Lê Chân,,Đường Kênh Dương (Quán Nam),Hải Phòng
20.8967125,106.73461333333333,TCB,833,36,Khách hàng sử dụng loa ngân hàng,anh.dao5,Huyện Thủy Nguyên,,đường đê,Hải Phòng
20.807875862068968,106.6241368965517,TCB,22,63,,vi.dinh,Quận Kiến An,,Phố Phan Đăng Lưu,Hải Phòng
20.865225000000002,106.709125,VCB,150,11,,,Quận Ngô Quyền,,Đường Lê Thánh Tông,Hải Phòng
20.860964814814817,106.6822725925926,VCB,850,61,,vi.dinh,Quận Hồng Bàng,,Phố Đinh Tiên Hoàng,Hải Phòng
20.852314347826088,106.66494130434782,VTB,886,72,,,Quận Lê Chân,,Đường Lán Bè,Hải Phòng
20.840085000000002,106.665795,TCB,869,10,,,Quận Lê Chân,,Ngõ 430 Trần Nguyên Hãn,Hải Phòng
20.88396,106.672775,MBB,744,27,,,Huyện Thủy Nguyên,,Phố Mới,Hải Phòng
20.792442727272729,106.67840363636364,TCB,12,33,,,Quận Dương Kinh,,Phố Phương Lung,Hải Phòng
20.857984000000002,106.69202,MBB,872,34,,,Quận Ngô Quyền,,Phố Lê Lợi,Hải Phòng
20.876715,106.56409500000001,MBB,3,42,Khách Hàng sử dụng loa ngân hàng,anh.dao5,Huyện An Dương,,Quốc lộ 17B,Hải Phòng
20.788537619047617,106.67837761904762,MBB,907,81,,vi.dinh,Huyện Kiến Thụy,,Phố Phong Cầu,Hải Phòng
20.793200769230772,106.71547384615386,MBB,210,38,,vi.dinh,Quận Dương Kinh,,Đường Phạm Văn Đồng,Hải Phòng
20.794064444444444,106.54885333333333,TCB,154,27,,,Huyện An Lão,,Trạm dừng nghỉ V77 Hải Phòng,Hải Phòng
20.84597,106.68576,TCB,393,18,,,Quận Lê Chân,,Phố Hàng Kênh,Hải Phòng
20.818311111111111,106.64699666666667,MBB,670,30,,vi.dinh,Quận Kiến An,,Đường Bắc Sơn,Hải Phòng
20.907391666666665,106.672765,BIDV,915,15,,,Huyện Thủy Nguyên,,Phố Mới,Hải Phòng
20.852991000000003,106.679324,MBB,754,31,,,Quận Lê Chân,,Phố Hai Bà Trưng (Cát Dài),Hải Phòng
20.853204,106.67256533333334,VTB,168,30,,vi.dinh,Quận Lê Chân,,Phố Nhà Thương,Hải Phòng
20.83406,106.70188857142857,MBB,692,32,,vi.dinh,Quận Ngô Quyền,,Phố Văn Cao,Hải Phòng
20.835358,106.689036,VCB,986,21,,,Quận Lê Chân,,Phố Ngô Kim Tài,Hải Phòng
20.72795285714286,106.55710857142859,TCB,183,27,,,Huyện Tiên Lãng,,Phố Minh Đức,Hải Phòng
20.834502645502649,106.68890656084655,MBB,352,496,,,Quận Lê Chân,,lối vào ktx,Hải Phòng
20.832946500000002,106.69768200000001,TCB,847,50,,,Quận Ngô Quyền,,Phố Lạch Tray,Hải Phòng
20.856284137931031,106.68217689655171,ACB,666,80,Ngân hàng tặng loa,hoan.dong,Quận Hồng Bàng,,Phố Đinh Tiên Hoàng,Hải Phòng
20.844444117647058,106.66966470588234,VTB,NG2,54,,,Quận Lê Chân,,Phố Trần Nguyên Hãn,Hải Phòng
20.843974,106.68693,VTB,888,20,,,Quận Lê Chân,,Phố Đình Đông,Hải Phòng
20.84837,106.73537999999999,MBB,182,15,,,Quận Hải An,,Đường Hạ Đoạn,Hải Phòng
20.847953999999998,106.685606,TCB,406,14,,,Quận Lê Chân,,Phố Hàng Kênh,Hải Phòng
20.8617625,106.69738,BIDV,193,32,,vi.dinh,Quận Ngô Quyền,,Ngõ Lạc Xuân Đài,Hải Phòng
20.822744999999998,106.63442125,MBB,10,43,Không tìm thấy địa chỉ,linh.nguyen46,Quận Kiến An,,Đường Lê Duẩn,Hải Phòng
20.832472000000003,106.6929728,VTB,991,89,,vi.dinh,Quận Lê Chân,,Phố Hào Khê,Hải Phòng
20.845010263157892,106.6704902631579,VPB,592,93,,,Quận Lê Chân,,Phố Trần Nguyên Hãn,Hải Phòng
20.838729999999998,106.69606,BIDV,529,12,,,Quận Ngô Quyền,,Phố Nguyễn Bình,Hải Phòng
20.808434,106.631766,TCB,666,15,,,Quận Kiến An,,Đường mòn đồi Thiên Văn,Hải Phòng
20.85598666666667,106.68723333333334,VIB,G02,17,,,Quận Ngô Quyền,,Phố Lương Khánh Thiện (Phố Ga),Hải Phòng
20.830772,106.624364,TCB,562,13,,,Huyện An Dương,,Phố Phan Đăng Lưu,Hải Phòng
20.84934,106.689532,MBB,qf6,15,,,Quận Ngô Quyền,,Phố Lạch Tray,Hải Phòng
20.850224,106.718887,TCB,872,30,,phuong.nguyen50,Quận Hải An,,Ngõ 383 Phù Thượng Đoạn,Hải Phòng
20.83269,106.72944,ACB,399,23,,,Quận Hải An,,Ngõ 389 Đằng Hải,Hải Phòng
20.9106225,106.71263249999998,TCB,868,20,,,Huyện Thủy Nguyên,,đường bờ đê,Hải Phòng
20.835662727272727,106.69040818181819,MBB,830,36,,,Quận Lê Chân,,Đường Kênh Dương (Quán Nam),Hải Phòng
20.888537142857146,106.71020857142858,MBB,291,45,,vi.dinh,Huyện Thủy Nguyên,,Cầu Vũ Yên,Hải Phòng
20.787127777777776,106.72029055555555,MBB,136,63,,vi.dinh,Quận Dương Kinh,,Đường Phạm Văn Đồng,Hải Phòng
20.890792,106.598044,TCB,483,48,,vi.dinh,Huyện An Dương,,Đường Hùng Vương,Hải Phòng
20.85331875,106.71704625000001,ACB,968,41,Mc lên tài khoản doanh nghiệp,phuong.nguyen50,Quận Hải An,,Đường Bùi Thị Từ Nhiên,Hải Phòng
20.861384444444447,106.70074333333332,TCB,679,21,,,Quận Ngô Quyền,,Đường Đà Nẵng,Hải Phòng
20.846057,106.68575699999998,MBB,532,61,,vi.dinh,Quận Lê Chân,,Phố Hàng Kênh,Hải Phòng
20.742754285714284,106.66233428571428,VCB,239,36,,vi.dinh,Huyện Kiến Thụy,,Phố Mạc Thái Tổ,Hải Phòng
20.856579090909094,106.6659209090909,VIB,506,25,,,Quận Hồng Bàng,,Phố Chi Lăng,Hải Phòng
20.790370714285718,106.61944142857142,VCB,628,36,,linh.nguyen46,Quận Kiến An,,Phố Trần Tất Văn,Hải Phòng
20.794107000000004,106.548868,TCB,482,36,,,Huyện An Lão,,Trạm dừng nghỉ V77 Hải Phòng,Hải Phòng
20.865198888888887,106.69962222222222,TCB,505,30,,vi.dinh,Quận Ngô Quyền,,Phố Lê Lai,Hải Phòng
20.850652,106.68783,TCB,13,14,,,Quận Ngô Quyền,,Phố Lạch Tray,Hải Phòng
20.835115161290318,106.69659741935486,MSB,757,65,,,Quận Ngô Quyền,,Phố Lạch Tray,Hải Phòng
20.805774,106.62413559999999,BIDV,2,105,Khách không nhu cầu dùng loa,linh.nguyen46,Quận Kiến An,,Phố Phan Đăng Lưu,Hải Phòng
20.82427625,106.71149625,MBB,965,24,,,Quận Hải An,,Phố Lý Hồng Nhật,Hải Phòng
20.890842972972969,106.59806405405405,TCB,345,168,,vi.dinh,Huyện An Dương,,Đường Hùng Vương,Hải Phòng
20.877083571428571,106.56349214285713,VTB,930,50,,anh.dao5,Huyện An Dương,,Quốc lộ 17B,Hải Phòng
20.846383571428571,106.69680714285714,TPB,666,36,,vi.dinh,Quận Ngô Quyền,,Đường vòng Hồ An Biên,Hải Phòng
20.800055,106.659395,MBB,656,19,,,Quận Dương Kinh,,Phố Đa Phúc,Hải Phòng
20.8546175,106.733374375,TCB,232,30,Mc dùng loa ngân hàng,phuong.nguyen50,Quận Hải An,,Đường ra cảng,Hải Phòng
20.8548625,106.67206,VIB,189,19,,,Quận Hồng Bàng,,Phố Quang Trung,Hải Phòng
20.846159999999998,106.74174249999999,MBB,408,13,,,Quận Hải An,,Đường Chùa Vẽ,Hải Phòng
20.843667142857143,106.68199142857144,BIDV,56,25,,,Quận Lê Chân,,Phố Hồ Sen,Hải Phòng
20.891827777777777,106.60198555555554,MBB,130,42,Không tìm thấy cửa hàng,hoan.dong,Quận Hồng Bàng,,Đường Do Nha,Hải Phòng
20.861384166666664,106.69952249999997,MBB,52,41,,,Quận Ngô Quyền,,Đường Đà Nẵng,Hải Phòng
20.839049000000003,106.697093,TPB,448,32,,,Quận Ngô Quyền,,Phố Nguyễn Bình,Hải Phòng
20.850145,106.685075,MBB,100,16,,,Quận Lê Chân,,Phố Chợ Con,Hải Phòng
20.8531,106.67655833333333,TCB,991,12,,,Quận Lê Chân,,Phố Cát Cụt,Hải Phòng
20.829655555555554,106.67927111111111,TCB,841,27,,,Quận Lê Chân,,Phố Thiên Lôi,Hải Phòng
20.726012500000003,106.55740916666666,AGRIBANK,198,30,,vi.dinh,Huyện Tiên Lãng,,Phố Trung Lãng,Hải Phòng
20.861482,106.69292100000001,not defined or m2m,565,54,,vi.dinh,Quận Ngô Quyền,,Đường Đà Nẵng,Hải Phòng
20.861010666666669,106.68239200000001,TCB,986,56,Ngân hàng tặng loa,hoan.dong,Quận Hồng Bàng,,Phố Đinh Tiên Hoàng,Hải Phòng
20.805728035714285,106.62412571428573,MBB,52,197,Khách dùng loa MB,linh.nguyen46,Quận Kiến An,,Phố Phan Đăng Lưu,Hải Phòng
20.807751250000003,106.624055,MBB,706,27,,,Quận Kiến An,,Phố Phan Đăng Lưu,Hải Phòng
20.857142,106.643331,VTB,158,27,,,Huyện An Dương,,Đường Máng Nước,Hải Phòng
20.845745,106.70201714285713,TCB,823,46,,vi.dinh,Quận Ngô Quyền,,Phố An Đà,Hải Phòng
20.86267895833333,106.68137041666668,MBB,666,99,Khách dùng loa ngân hàng,hoan.dong,Quận Hồng Bàng,,Phố Hoàng Văn Thụ,Hải Phòng
20.822351702127659,106.6363414893617,VPB,506,121,,vi.dinh,Quận Kiến An,,Đường Lê Duẩn,Hải Phòng
20.845216666666669,106.68586499999999,TCB,835,37,,,Quận Lê Chân,,Phố Hàng Kênh,Hải Phòng
20.808725555555558,106.62420777777777,VCB,496,32,,vi.dinh,Quận Kiến An,,Phố Phan Đăng Lưu,Hải Phòng
20.829398333333334,106.66661666666667,MBB,676,21,,,Quận Kiến An,,Phố Quán Trữ,Hải Phòng
20.793814285714287,106.52055142857144,VTB,HA1,28,,,Huyện An Lão,,Quốc lộ 10,Hải Phòng
20.839612903225806,106.69514806451613,MBB,787,188,,,Quận Ngô Quyền,,Phố Lạch Tray,Hải Phòng
20.917225714285713,106.67221857142857,TCB,868,11,,,Huyện Thủy Nguyên,,Đường 25 Tháng 10,Hải Phòng
20.830681249999998,106.67903125,TCB,299,16,,,Quận Lê Chân,,Ngõ 453 thiên Lôi,Hải Phòng
20.838798333333337,106.69626166666664,TCB,645,42,,vi.dinh,Quận Ngô Quyền,,Phố Nguyễn Bình,Hải Phòng
20.861855,106.6656625,MBB,382,16,,,Quận Hồng Bàng,,Phố Bạch Đằng,Hải Phòng
20.848485555555555,106.69583777777778,TCB,516,29,,,Quận Ngô Quyền,,Đường vòng Hồ An Biên,Hải Phòng
20.856972469135798,106.68394407407406,HDB,35,265,,vi.dinh,Quận Hồng Bàng,,Phố Lê Đại Hành,Hải Phòng
20.861386,106.699589,MBB,340,18,,,Quận Ngô Quyền,,Đường Đà Nẵng,Hải Phòng
20.881285,106.5511475,TCB,480,15,,,Huyện An Dương,,Quốc lộ 17B,Hải Phòng
20.88057875,106.55626625,AGRIBANK,884,32,,anh.dao5,Huyện An Dương,,Quốc lộ 17B,Hải Phòng
20.841382352941174,106.69618058823529,VCB,324,35,,vi.dinh,Quận Ngô Quyền,,Đường Nguyễn Bỉnh Khiêm,Hải Phòng
20.842938888888884,106.69078055555556,TCB,505,43,,,Quận Lê Chân,,Phố Đình Đông,Hải Phòng
20.793200769230772,106.71547384615386,MBB,210,38,,,Quận Dương Kinh,,Đường Phạm Văn Đồng,Hải Phòng
20.710796874999996,106.791010625,VTB,886,55,,vi.dinh,Quận Đồ Sơn,,Phố Nguyễn Hữu Cầu,Hải Phòng
20.839421,106.69625399999998,TCB,140,41,,vi.dinh,Quận Ngô Quyền,,Ngõ dân sinh,Hải Phòng
20.864271463414635,106.61536780487806,SACOM,300,157,,vi.dinh,Huyện An Dương,,Đường Máng Nước,Hải Phòng
20.836334166666674,106.69611916666663,TCB,646,52,,vi.dinh,Quận Ngô Quyền,,Phố Lạch Tray,Hải Phòng
20.83793,106.70984142857144,TCB,743,26,,,Quận Hải An,,Phố Trung Lực,Hải Phòng
20.818649166666663,106.54397333333334,BIDV,287,33,,vi.dinh,Huyện An Lão,,Đường Ngô Quyền,Hải Phòng
20.857995769230769,106.68462500000001,MBB,312,87,,vi.dinh,Quận Hồng Bàng,,Phố Trần Hưng Đạo,Hải Phòng
20.831886666666666,106.72755999999998,VCB,328,39,Mc dùng loa ngân hàng,phuong.nguyen50,Quận Hải An,,Phố Lũng Đông,Hải Phòng
20.86726125,106.61580125,TCB,735,31,,vi.dinh,Huyện An Dương,,Quốc lộ 17B,Hải Phòng
20.868853333333334,106.65636416666665,VIB,356,36,Khách không tin tưởng  sợ lừa đảo,hoan.dong,Quận Hồng Bàng,,Đường Hùng Vương,Hải Phòng
20.835271666666667,106.68914083333334,MBB,106,43,,,Quận Lê Chân,,Phố Ngô Kim Tài,Hải Phòng
20.852972173913045,106.67098043478261,TCB,894,81,,,Quận Lê Chân,,Phố Trần Nguyên Hãn,Hải Phòng
20.8373775,106.6377775,VTB,180,35,,vi.dinh,Huyện An Dương,,Đường Nguyễn Trường Tộ,Hải Phòng
20.841099230769235,106.66724538461538,ABB,392,46,,vi.dinh,Quận Lê Chân,,Phố Trần Nguyên Hãn,Hải Phòng
20.825326842105262,106.65485263157895,VCB,401,55,,vi.dinh,Quận Kiến An,,Đường Trường Chinh,Hải Phòng
20.877093333333335,106.56353066666665,WOORIBANK,48,74,,anh.dao5,Huyện An Dương,,Quốc lộ 17B,Hải Phòng
20.80534625,106.63117000000001,MBB,111,30,,vi.dinh,Quận Kiến An,,Phố Nguyễn Xiển,Hải Phòng
20.89178,106.59668,VTB,17,25,,,Huyện An Dương,,Đường Hùng Vương,Hải Phòng
20.893546153846156,106.60456076923077,TPB,868,32,Bán gần Lead Scout,hoan.dong,Quận Hồng Bàng,,Phố Hải Triều,Hải Phòng
20.861494000000004,106.700818,VTB,876,20,,,Quận Ngô Quyền,,Ngõ 191 Đà Nẵng,Hải Phòng
20.966168,106.671102,VIB,155,10,,,Huyện Thủy Nguyên,,Quốc lộ 10,Hải Phòng
20.904308571428569,106.67905,PVCOM,2,45,Cây xăng,anh.dao5,Huyện Thủy Nguyên,,Phố Trần Hưng Đạo,Hải Phòng
20.812257857142857,106.62580999999999,TCB,888,32,,vi.dinh,Quận Kiến An,,Phố Trần Thành Ngọ,Hải Phòng
20.838157777777777,106.69661444444444,MBB,874,28,,,Quận Ngô Quyền,,Phố Nguyễn Bình,Hải Phòng
20.826888679245286,106.70597264150945,VTB,F11,143,K tìm thấy mc,phuong.nguyen50,Quận Hải An,,Phố Cát Bi,Hải Phòng
20.844568775510208,106.68191571428572,MBB,133,144,,,Quận Lê Chân,,Phố Hồ Sen,Hải Phòng
20.845207999999996,106.6858355,MBB,406,69,,,Quận Lê Chân,,Phố Hàng Kênh,Hải Phòng
20.859514210526314,106.6901994736842,TCB,888,32,,,Quận Ngô Quyền,,Phố Lương Khánh Thiện (Phố Ga),Hải Phòng
20.976723076923083,106.60178,PVCOM,1,36,,vi.dinh,Huyện Thủy Nguyên,,Đường tỉnh 352,Hải Phòng
20.858607777777781,106.68839222222222,TCB,15,20,,,Quận Ngô Quyền,,Phố Trần Bình Trọng,Hải Phòng
20.836384444444441,106.70193222222223,BIDV,509,20,,,Quận Ngô Quyền,,Phố Đỗ Nhuận,Hải Phòng
20.85172555555555,106.71784833333334,MBB,274,38,,vi.dinh,Quận Hải An,,Phố Phủ Thượng Đoạn,Hải Phòng
20.849154000000002,106.737192,MSB,271,16,,,Quận Hải An,,Đường Chùa Vẽ,Hải Phòng
20.890951111111114,106.59896444444445,MBB,982,29,,,Huyện An Dương,,Đường Hùng Vương,Hải Phòng
20.833556666666667,106.67974166666666,VIB,828,36,,vi.dinh,Quận Lê Chân,,Ngõ 21 Đồng Thiện,Hải Phòng
20.837206666666667,106.67637666666667,MBB,736,42,,,Quận Lê Chân,,Phố Hoàng Minh Thảo,Hải Phòng
20.821881904761906,106.56117380952381,TCB,349,66,,vi.dinh,Huyện An Lão,,Đường Trần Tất Văn,Hải Phòng
20.892294444444445,106.59553,VIB,986,33,Khách sử dụng loa ngân hàng,anh.dao5,Huyện An Dương,,Đường Hùng Vương,Hải Phòng
20.8474421875,106.71289875000002,ACB,868,131,Mc dùng loa mb,phuong.nguyen50,Quận Hải An,,Phố Đoàn Chuẩn,Hải Phòng
20.832460624999996,106.692981875,TCB,804,51,,vi.dinh,Quận Lê Chân,,Phố Hào Khê,Hải Phòng
20.88057875,106.55626625,AGRIBANK,884,32,,vi.dinh,Huyện An Dương,,Quốc lộ 17B,Hải Phòng
20.821719230769233,106.55977461538461,VTB,F11,34,,,Huyện An Lão,,Đường Trần Tất Văn,Hải Phòng
20.851573846153848,106.69007076923077,VCB,591,38,,vi.dinh,Quận Ngô Quyền,,Phố Chu Văn An,Hải Phòng
20.840625555555555,106.71566555555556,TPB,277,24,,,Quận Hải An,,Phố Chợ Lũng,Hải Phòng
20.857642000000002,106.64246200000001,TCB,701,21,,,Huyện An Dương,,Đường Máng Nước,Hải Phòng
20.86156,106.634924,BIDV,637,15,,,Huyện An Dương,,Đường Máng Nước,Hải Phòng
20.85773714285714,106.64223,VIB,80,18,,,Huyện An Dương,,Đường Máng Nước,Hải Phòng
20.846744444444447,106.69131666666667,TCB,513,60,,vi.dinh,Quận Ngô Quyền,,Phố Lạch Tray,Hải Phòng
20.852070769230767,106.67438307692306,TPB,501,41,,,Quận Lê Chân,,Phố Hai Bà Trưng (Cát Dài),Hải Phòng
20.859733,106.686551,TCB,87,27,,,Quận Hồng Bàng,,Phố Trần Quang Khải,Hải Phòng
20.848868333333336,106.6685125,TCB,293,26,,,Quận Lê Chân,,Đường Tôn Đức Thắng,Hải Phòng
20.825185,106.70998833333333,VIB,218,21,,,Quận Hải An,,Phố Cát Bi,Hải Phòng
20.8221,106.74106636363635,AGRIBANK,8B6,34,,vi.dinh,Quận Hải An,,Phố Cát Linh,Hải Phòng
20.852050000000002,106.68545,VTB,634,28,,,Quận Lê Chân,,Phố Tô Hiệu,Hải Phòng
20.855247666666667,106.67695466666667,MBB,666,90,,vi.dinh,Quận Hồng Bàng,,Phố Nguyễn Đức Cảnh,Hải Phòng
20.813808333333331,106.62579366666667,MBB,870,86,Khách không nhu cầu dùng loa,linh.nguyen46,Quận Kiến An,,Phố Trần Thành Ngọ,Hải Phòng
20.847834000000002,106.679358,VCB,163,11,,,Quận Lê Chân,,Ngõ 51 Dư Hàng,Hải Phòng
20.855336,106.68927599999999,TCB,999,14,,,Quận Ngô Quyền,,Phố Lê Lợi,Hải Phòng
20.8967125,106.73461333333333,TCB,833,36,,vi.dinh,Huyện Thủy Nguyên,,đường đê,Hải Phòng
20.945737777777776,106.74161944444444,BIDV,999,48,,vi.dinh,Huyện Thủy Nguyên,,Đường Đập Minh Đức,Hải Phòng
20.84130625,106.69991375,OCB,268,21,,,Quận Ngô Quyền,,Phố Bạch Thái Bưởi,Hải Phòng
20.830112000000003,106.68605333333333,TCB,600,189,,vi.dinh,Quận Lê Chân,,Phố Nguyễn Tất Tố,Hải Phòng
20.828692500000002,106.70149,AGRIBANK,518,15,,,Quận Hải An,,Phố Cát Bi,Hải Phòng
20.85845875,106.69253125,VPB,138,26,,,Quận Ngô Quyền,,Phố Lê Lợi,Hải Phòng
20.836550833333334,106.69078861111112,TCB,11,141,,,Quận Lê Chân,,Phố Nguyễn Bình,Hải Phòng
20.8342,106.65988,TCB,373,13,,,Quận Kiến An,,Phố Lãm Hà,Hải Phòng
20.804454166666662,106.62432166666666,MBB,772,35,Khách được NCB tặng loa,linh.nguyen46,Quận Kiến An,,Phố Phan Đăng Lưu,Hải Phòng
20.857536000000003,106.64248559999999,VTB,466,59,kH sử dụng loa ngân hàng,anh.dao5,Huyện An Dương,,Đường Máng Nước,Hải Phòng
20.829127142857139,106.68455904761905,VCB,697,63,,,Quận Lê Chân,,Đường Võ Nguyên Giáp,Hải Phòng
20.836244878048781,106.69608853658535,KLB,288,94,,,Quận Ngô Quyền,,Phố Lạch Tray,Hải Phòng
20.715203571428567,106.55525214285714,BIDV,635,66,,,Huyện Tiên Lãng,,Rồng,Hải Phòng
20.899659,106.688716,MBB,992,44,KH đc Ngân Hàng tặng Loa,anh.dao5,Huyện Thủy Nguyên,,đường liên thôn,Hải Phòng
20.8693,106.65229,VCB,712,16,,,Quận Hồng Bàng,,Đường Tôn Đức Thắng,Hải Phòng
20.843324117647061,106.69964882352942,TCB,581,42,,vi.dinh,Quận Ngô Quyền,,Ngõ 128 An Đà,Hải Phòng
20.86065470588235,106.6949211764706,MBB,436,49,,vi.dinh,Quận Ngô Quyền,,Phố Lê Lợi,Hải Phòng
20.877137692307691,106.56343807692309,BIDV,892,115,,vi.dinh,Huyện An Dương,,Quốc lộ 17B,Hải Phòng
20.834446428571425,106.68883785714286,BIDV,384,36,,vi.dinh,Quận Lê Chân,,lối vào ktx,Hải Phòng
20.805728035714285,106.62412571428573,MBB,52,197,,vi.dinh,Quận Kiến An,,Phố Phan Đăng Lưu,Hải Phòng
20.834584999999997,106.694995,VCB,699,13,,,Quận Lê Chân,,Phố Hào Khê,Hải Phòng
20.832660952380955,106.65985476190475,MBB,132,63,,vi.dinh,Quận Kiến An,,Đường Trường Chinh,Hải Phòng
20.823802941176467,106.55613588235293,MBB,523,41,,vi.dinh,Huyện An Lão,,Phố Nguyễn Văn Trỗi,Hải Phòng
20.852297931034482,106.71752896551723,MBB,512,99,Mc dùng loa ngân hàng,phuong.nguyen50,Quận Hải An,,Phố Phủ Thượng Đoạn,Hải Phòng
20.72556,106.55263058823529,VTB,S01,42,,,Huyện Tiên Lãng,,Phố Nguyễn Văn Sơ,Hải Phòng
20.921446000000003,106.664624,VIB,770,20,,,Huyện Thủy Nguyên,,Đường 25 Tháng 10,Hải Phòng
20.823736666666665,106.71201333333333,MBB,46,23,,,Quận Hải An,,Phố Lý Hồng Nhật,Hải Phòng
20.856220526315791,106.68643789473684,ACB,397,51,,vi.dinh,Quận Ngô Quyền,,Phố Lương Khánh Thiện (Phố Ga),Hải Phòng
20.859997142857139,106.68039142857144,AGRIBANK,5B3,10,,,Quận Hồng Bàng,,Phố Vũ Hải,Hải Phòng
20.844362307692307,106.69683846153846,TCB,805,36,,,Quận Ngô Quyền,,Phố An Đà,Hải Phòng
20.829911304347828,106.69264521739132,VTB,542,53,,vi.dinh,Quận Lê Chân,,Phố Thiên Lôi,Hải Phòng
20.835126666666664,106.69080611111112,TCB,754,52,,vi.dinh,Quận Lê Chân,,Đường Kênh Dương (Quán Nam),Hải Phòng
20.726463902439022,106.55829634146343,VCB,966,129,,,Huyện Tiên Lãng,,Phố Trung Lãng,Hải Phòng
20.8719,106.57446599999999,VTB,F76,15,,,Huyện An Dương,,Quốc lộ 17B,Hải Phòng
20.893840769230767,106.58977307692308,MBB,592,47,Khách sử dụng loa ngân hàng,anh.dao5,Huyện An Dương,,Quốc lộ 5,Hải Phòng
20.847005,106.700895,MBB,116,38,,vi.dinh,Quận Ngô Quyền,,Phố Đông Khê,Hải Phòng
20.84288,106.71757666666666,MBB,986,15,,,Quận Hải An,,Phố Lũng Bắc,Hải Phòng
20.8344,106.70990666666667,TCB,977,29,,,Quận Hải An,,Phố Trung Lực,Hải Phòng
20.848477777777777,106.63582555555556,MBB,618,22,,,Huyện An Dương,,Ngõ dân sinh 1,Hải Phòng
20.842963,106.716263,NCB,201,40,,vi.dinh,Quận Hải An,,Phố Lũng Bắc,Hải Phòng
20.965363200000002,106.6098228,VTB,827,102,KH sử dụng loa ngân hàng,anh.dao5,Huyện Thủy Nguyên,,Đường tỉnh 352,Hải Phòng
20.911996666666667,106.64530666666667,BIDV,326,12,,,Huyện Thủy Nguyên,,Đường tỉnh 352,Hải Phòng
20.855266,106.682278,TCB,792,22,,,Quận Ngô Quyền,,Phố Cầu Đất,Hải Phòng
20.845216666666669,106.68586499999999,TCB,835,37,,vi.dinh,Quận Lê Chân,,Phố Hàng Kênh,Hải Phòng
20.856479411764703,106.68682235294118,ACB,74,40,,,Quận Ngô Quyền,,Phố Lương Khánh Thiện (Phố Ga),Hải Phòng
20.848923125,106.66879249999998,TCB,76,32,,vi.dinh,Quận Lê Chân,,Đường Tôn Đức Thắng,Hải Phòng
20.79041375,106.619445625,TCB,121,43,,vi.dinh,Quận Kiến An,,Phố Trần Tất Văn,Hải Phòng
20.827651428571428,106.6818592857143,TCB,907,38,,,Quận Lê Chân,,Phố Thiên Lôi,Hải Phòng
20.807875862068968,106.6241368965517,TCB,22,63,Không tìm thấy,linh.nguyen46,Quận Kiến An,,Phố Phan Đăng Lưu,Hải Phòng
20.887721111111112,106.68774222222221,MBB,510,45,KH sử dụng loa ngân hàng,anh.dao5,Huyện Thủy Nguyên,,Hữu Quan,Hải Phòng
20.85313,106.716815,TCB,677,10,,,Quận Hải An,,Đường Bùi Thị Từ Nhiên,Hải Phòng
20.844222499999997,106.69631833333332,MBB,516,32,,vi.dinh,Quận Ngô Quyền,,Phố An Đà,Hải Phòng
20.834535,106.6889772,MBB,186,187,,,Quận Lê Chân,,lối vào ktx,Hải Phòng
20.814252857142858,106.62576428571428,TCB,132,17,,,Quận Kiến An,,Phố Trần Thành Ngọ,Hải Phòng
20.840006666666667,106.68256000000001,TCB,895,14,,,Quận Lê Chân,,Phố Hồ Sen,Hải Phòng
20.833847499999997,106.6943575,TCB,109,17,,,Quận Lê Chân,,Phố Hào Khê,Hải Phòng
20.74855333333333,106.74979416666666,MBB,888,40,,,Quận Đồ Sơn,,Phố Hợp Đức,Hải Phòng
20.842576190476191,106.70313238095238,TCB,126,57,,,Quận Ngô Quyền,,Đường Nguyễn Bỉnh Khiêm,Hải Phòng
20.86098888888889,106.72006333333334,BIDV,186,62,Mc đã có loa ngân hàng,phuong.nguyen50,Quận Hải An,,Đường Đà Nẵng,Hải Phòng
20.834315652173913,106.68855608695652,BIDV,697,147,,,Quận Lê Chân,,lối vào ktx,Hải Phòng
20.835689999999996,106.690425,MBB,816,30,,,Quận Lê Chân,,Đường Kênh Dương (Quán Nam),Hải Phòng
20.859868461538461,106.68363846153846,OCB,407,39,Khách dùng loa ngân hàng,hoan.dong,Quận Hồng Bàng,,Phố Trần Quang Khải,Hải Phòng
20.848412222222219,106.69589111111111,VPB,516,34,,vi.dinh,Quận Ngô Quyền,,Đường vòng Hồ An Biên,Hải Phòng
20.835060270270272,106.69660729729731,VTB,886,109,,vi.dinh,Quận Ngô Quyền,,Phố Lạch Tray,Hải Phòng
20.852314347826088,106.66494130434782,VTB,886,72,,vi.dinh,Quận Lê Chân,,Đường Lán Bè,Hải Phòng
20.846141666666668,106.66662583333333,MBB,112,38,,,Quận Lê Chân,,Phố An Dương,Hải Phòng
20.844183750000003,106.68902874999999,TCB,758,21,,,Quận Lê Chân,,Phố Đình Đông,Hải Phòng
20.859427209302321,106.68652232558141,TCB,695,105,,vi.dinh,Quận Hồng Bàng,,Phố Trần Hưng Đạo,Hải Phòng
20.863237142857145,106.65156571428572,MBB,330,41,,vi.dinh,Quận Hồng Bàng,,Đường đê Quai Chảo,Hải Phòng
20.845446250000002,106.67088999999999,TCB,333,21,,,Quận Lê Chân,,Phố Trần Nguyên Hãn,Hải Phòng
20.843490000000003,106.6801175,BIDV,474,11,,,Quận Lê Chân,,Phố Miếu Hai Xã,Hải Phòng
20.84691,106.68545,TCB,889,15,,,Quận Lê Chân,,Phố Hàng Kênh,Hải Phòng
20.644635555555553,106.53372222222222,AGRIBANK,279,32,,,Huyện Vĩnh Bảo,,Đường Trung Tân,Hải Phòng
20.726671111111109,106.55622777777776,VTB,123,85,,,Huyện Tiên Lãng,,Phố Minh Đức,Hải Phòng
20.8080990625,106.6240959375,TCB,975,83,Không tìm thấy điểm bán,linh.nguyen46,Quận Kiến An,,Phố Phan Đăng Lưu,Hải Phòng
20.835008888888883,106.69086222222221,MBB,100,70,,vi.dinh,Quận Lê Chân,,Đường Kênh Dương (Quán Nam),Hải Phòng
20.853041363636365,106.71715727272726,MBB,820,46,,vi.dinh,Quận Hải An,,Phố Phủ Thượng Đoạn,Hải Phòng
20.83465,106.69506,BIDV,536,12,,,Quận Lê Chân,,Phố Hào Khê,Hải Phòng
20.85657947368421,106.71627789473685,MBB,661,49,,vi.dinh,Quận Hải An,,Phố Phủ Thượng Đoạn,Hải Phòng
20.890714999999997,106.60047166666666,MBB,316,24,,,Quận Hồng Bàng,,Đường Hùng Vương,Hải Phòng
20.898725,106.6750025,MBB,584,19,,,Huyện Thủy Nguyên,,thôn 1,Hải Phòng
20.92193,106.679409,TPB,989,19,,,Huyện Thủy Nguyên,,Phố Trần Quốc Toản,Hải Phòng
20.84954375,106.67202875,MBB,460,30,,,Quận Lê Chân,,Phố Tô Hiệu,Hải Phòng
20.822713225806446,106.55884322580646,TCB,329,122,,vi.dinh,Huyện An Lão,,Phố Lê Lợi,Hải Phòng
20.855662666666671,106.67905466666667,TCB,997,51,,vi.dinh,Quận Hồng Bàng,,Phố Nguyễn Đức Cảnh,Hải Phòng
20.836865833333334,106.69096000000002,MBB,960,49,,,Quận Lê Chân,,Phố Nguyễn Bình,Hải Phòng
20.84477,106.69871,MBB,42,33,,,Quận Ngô Quyền,,Phố An Đà,Hải Phòng
20.8221,106.74106636363635,AGRIBANK,8B6,34,Mc dùng loa ngân hàng,phuong.nguyen50,Quận Hải An,,Phố Cát Linh,Hải Phòng
20.834671875,106.55505875,VTB,245,65,,vi.dinh,Huyện An Lão,,Quốc lộ 10,Hải Phòng
20.836168333333333,106.68993999999999,VCB,262,15,,,Quận Lê Chân,,Đường Kênh Dương (Quán Nam),Hải Phòng
20.833352142857141,106.69803142857143,BIDV,584,45,,vi.dinh,Quận Ngô Quyền,,Phố Vũ Trọng Khánh,Hải Phòng
20.805223076923077,106.63098538461539,TCB,421,37,Khách vừa lên hkd được tặng loa ngân hàng,linh.nguyen46,Quận Kiến An,,Phố Nguyễn Xiển,Hải Phòng
20.857204,106.64328,MBB,977,64,Khách sử dụng loa ngân hàng,anh.dao5,Huyện An Dương,,Đường Máng Nước,Hải Phòng
20.84376,106.72969142857143,TCB,67,22,,,Quận Hải An,,Đường Đông Hải,Hải Phòng
20.855810645161291,106.6848270967742,MBB,999,122,,,Quận Ngô Quyền,,Phố Nguyễn Khuyến,Hải Phòng
20.858344285714285,106.57279,MBB,223,55,Cổng Khu Công Nghiệp LG Tràng Duệ,anh.dao5,Huyện An Dương,,Quốc lộ 10,Hải Phòng
20.834971111111109,106.69090444444444,MBB,486,20,,,Quận Lê Chân,,Đường Kênh Dương (Quán Nam),Hải Phòng
20.861180833333332,106.68382749999999,TPB,888,43,,vi.dinh,Quận Hồng Bàng,,Phố Lê Đại Hành,Hải Phòng
20.845171052631581,106.70027578947369,VPB,220,61,,vi.dinh,Quận Ngô Quyền,,Phố An Đà,Hải Phòng
20.891539285714288,106.60490428571428,MBB,416,25,,,Quận Hồng Bàng,,Phố Hải Triều,Hải Phòng
20.834043333333334,106.68822,TCB,19,19,,,Quận Lê Chân,,Ngõ 30,Hải Phòng
20.844451538461538,106.69733692307692,SHB,986,61,,vi.dinh,Quận Ngô Quyền,,Phố An Đà,Hải Phòng
20.845115,106.56265142857143,VTB,F11,51,,vi.dinh,Huyện An Lão,,Quốc lộ 10,Hải Phòng
20.861383333333333,106.69707944444444,MBB,4,46,,,Quận Ngô Quyền,,Đường Đà Nẵng,Hải Phòng
20.85168909090909,106.6849990909091,AGRIBANK,14C,102,,,Quận Lê Chân,,Phố Hàng Kênh,Hải Phòng
20.842963,106.716263,NCB,201,40,,phuong.nguyen50,Quận Hải An,,Phố Lũng Bắc,Hải Phòng
20.842563225806455,106.70316677419356,TCB,528,68,,,Quận Ngô Quyền,,Đường Nguyễn Bỉnh Khiêm,Hải Phòng
20.8350075,106.7234775,TCB,601,14,,,Quận Hải An,,Phố Trần Hoàn,Hải Phòng
20.8409725,106.68462749999999,TPB,401,11,,,Quận Lê Chân,,Ngõ 145 Chợ Hàng,Hải Phòng
20.821693636363637,106.68362818181818,MBB,328,34,,vi.dinh,Quận Lê Chân,,Trực Cát 1,Hải Phòng
20.8378725,106.69550749999999,TCB,853,36,,vi.dinh,Quận Ngô Quyền,,Phố Lạch Tray,Hải Phòng
20.836524090909091,106.69600249999999,TCB,13,108,,,Quận Ngô Quyền,,Phố Lạch Tray,Hải Phòng
20.842178666666666,106.69096800000001,VIB,831,34,,,Quận Lê Chân,,Phố Lý Thành Long,Hải Phòng
20.850671000000002,106.687827,MBB,364,27,,,Quận Ngô Quyền,,Phố Lạch Tray,Hải Phòng
20.832755999999996,106.70230299999999,TCB,110,20,,,Quận Hải An,,Phố Văn Cao,Hải Phòng
20.83516294117647,106.6907782352941,TCB,103,35,,,Quận Lê Chân,,Đường Kênh Dương (Quán Nam),Hải Phòng
20.839892,106.738044,VCB,809,23,,,Quận Hải An,,Đường Nam Hải,Hải Phòng
20.826026249999998,106.70781916666665,MBB,385,65,,vi.dinh,Quận Hải An,,Phố Cát Bi,Hải Phòng
20.861384166666664,106.69952249999997,MBB,52,41,,vi.dinh,Quận Ngô Quyền,,Đường Đà Nẵng,Hải Phòng
20.822258333333334,106.556424,TCB,732,61,,vi.dinh,Huyện An Lão,,Phố Nguyễn Văn Trỗi,Hải Phòng
20.857037142857145,106.68286428571429,BIDV,568,22,,,Quận Hồng Bàng,,Phố Trần Hưng Đạo,Hải Phòng
20.859360370370368,106.6902062962963,VTB,738,72,,vi.dinh,Quận Ngô Quyền,,Phố Lương Khánh Thiện (Phố Ga),Hải Phòng
20.836550833333334,106.69078861111112,TCB,11,141,,vi.dinh,Quận Lê Chân,,Phố Nguyễn Bình,Hải Phòng
20.82383,106.71193166666667,MBB,754,31,,vi.dinh,Quận Hải An,,Phố Lý Hồng Nhật,Hải Phòng
20.844222499999997,106.69631833333332,MBB,516,32,,,Quận Ngô Quyền,,Phố An Đà,Hải Phòng
20.801342222222221,106.62702888888889,VTB,842,40,,vi.dinh,Quận Kiến An,,Phố Nguyễn Lương Bằng,Hải Phòng
20.918096,106.67410900000002,BIDV,939,33,Cây Xăng,anh.dao5,Huyện Thủy Nguyên,,Đường 25 Tháng 10,Hải Phòng
20.83161875,106.703185625,MBB,952,36,,vi.dinh,Quận Hải An,,Phố An Trung,Hải Phòng
20.849214999999997,106.69516833333333,MBB,588,33,,vi.dinh,Quận Ngô Quyền,,Đường vòng Hồ An Biên,Hải Phòng
20.832376333333332,106.70245133333334,MBB,762,115,,phuong.nguyen50,Quận Hải An,,Phố Văn Cao,Hải Phòng
20.880622727272726,106.55603636363637,BIDV,711,50,KH dùng loa ngân hàng,anh.dao5,Huyện An Dương,,Quốc lộ 17B,Hải Phòng
20.85789,106.65042333333334,BIDV,483,15,,,Huyện An Dương,,Quốc lộ 17B,Hải Phòng
20.85579,106.67951,ACB,666,19,,,Quận Hồng Bàng,,Phố Nguyễn Đức Cảnh,Hải Phòng
20.880081999999998,106.558682,VTB,296,79,,anh.dao5,Huyện An Dương,,Quốc lộ 17B,Hải Phòng
20.81408965517241,106.58653862068968,VTB,111,84,,vi.dinh,Huyện An Lão,,Tỉnh lộ 360,Hải Phòng
20.847824,106.68556,VTB,577,39,,,Quận Lê Chân,,Phố Hàng Kênh,Hải Phòng
20.84794647058823,106.69059588235294,TCB,62,43,,vi.dinh,Quận Ngô Quyền,,Phố Lạch Tray,Hải Phòng
20.857221666666668,106.64305916666666,MBB,276,29,,,Huyện An Dương,,Đường Máng Nước,Hải Phòng
20.831274117647059,106.69431470588235,VPB,993,58,,,Quận Lê Chân,,Đường Kênh Dương (Quán Nam),Hải Phòng
20.851351578947369,106.68180421052631,TCB,398,72,,vi.dinh,Quận Lê Chân,,Phố Tô Hiệu,Hải Phòng
20.906764,106.606798,MBB,474,11,,,Huyện An Dương,,Quốc lộ 10,Hải Phòng
20.851351875,106.68170749999999,VCB,989,48,,vi.dinh,Quận Lê Chân,,Phố Tô Hiệu,Hải Phòng
20.848385714285715,106.67865285714286,TCB,811,36,,,Quận Lê Chân,,Ngõ 70 Dư Hàng,Hải Phòng
20.853043749999998,106.71715125,MBB,412,22,,,Quận Hải An,,Phố Phủ Thượng Đoạn,Hải Phòng
20.855179375,106.676739375,MBB,420,54,Khách dùng loa MB,hoan.dong,Quận Hồng Bàng,,Phố Nguyễn Đức Cảnh,Hải Phòng
20.838645,106.7002625,MBB,560,11,,,Quận Ngô Quyền,,Phố Văn Cao,Hải Phòng
20.837621621621622,106.69172945945947,MSB,589,79,,,Quận Lê Chân,,Phố Nguyễn Bình,Hải Phòng
20.855563333333333,106.64598,VTB,981,11,,,Huyện An Dương,,Đường Máng Nước,Hải Phòng
20.80445,106.624324375,TCB,928,33,,vi.dinh,Quận Kiến An,,Phố Phan Đăng Lưu,Hải Phòng
20.833991666666666,106.69463999999999,MBB,999,27,,,Quận Lê Chân,,Phố Hào Khê,Hải Phòng
20.799905,106.62786400000002,BIDV,335,29,,,Quận Kiến An,,Phố Nguyễn Lương Bằng,Hải Phòng
20.812539999999995,106.62581875,TCB,38,23,,,Quận Kiến An,,Phố Trần Thành Ngọ,Hải Phòng
20.877035714285718,106.56362071428572,TCB,28,37,,vi.dinh,Huyện An Dương,,Quốc lộ 17B,Hải Phòng
20.833244444444443,106.67461277777778,TCB,154,49,,,Quận Lê Chân,,Phố Thiên Lôi,Hải Phòng
20.811545000000002,106.625805,MBB,568,20,,,Quận Kiến An,,Phố Trần Thành Ngọ,Hải Phòng
20.831698333333332,106.67670666666666,OCB,502,19,,,Quận Lê Chân,,Phố Thiên Lôi,Hải Phòng
20.832429411764704,106.69782823529412,BIDV,51,87,,vi.dinh,Quận Ngô Quyền,,Phố Lạch Tray,Hải Phòng
20.858738260869561,106.68679173913044,VTB,686,62,Khách dùng loa ngân hàng,hoan.dong,Quận Hồng Bàng,,Phố Trần Phú,Hải Phòng
20.825915625,106.70820937500001,TCB,173,31,,vi.dinh,Quận Hải An,,Phố Cát Bi,Hải Phòng
20.837621621621622,106.69172945945947,MSB,589,79,,vi.dinh,Quận Lê Chân,,Phố Nguyễn Bình,Hải Phòng
20.880414999999996,106.55725583333333,VTB,886,39,,vi.dinh,Huyện An Dương,,Quốc lộ 17B,Hải Phòng
20.851351578947369,106.68180421052631,TCB,398,72,,,Quận Lê Chân,,Phố Tô Hiệu,Hải Phòng
20.83123,106.698682,MBB,52,24,,,Quận Ngô Quyền,,Phố Lạch Tray,Hải Phòng
20.856419166666665,106.68238916666667,VTB,545,37,Ngân hàng tặng loa,hoan.dong,Quận Hồng Bàng,,Phố Đinh Tiên Hoàng,Hải Phòng
20.7374075,106.7581,VTB,987,18,,,Quận Đồ Sơn,,Đường Nghĩa Phương,Hải Phòng
20.841892857142856,106.70993428571428,TCB,699,18,,,Quận Hải An,,Đường Lê Hồng Phong,Hải Phòng
20.85452,106.67875,VTB,686,10,,,Quận Lê Chân,,Ngõ 170 Hai Bà Trưng,Hải Phòng
20.817772307692309,106.53826076923076,BIDV,506,20,,,Huyện An Lão,,Đường Ngô Quyền,Hải Phòng
20.84253833333333,106.67378666666667,TCB,824,19,,,Quận Lê Chân,,Phố Nguyễn Tường Loan,Hải Phòng
20.831957777777781,106.68915999999999,MBB,102,35,,vi.dinh,Quận Lê Chân,,Phố Nguyễn Tất Tố,Hải Phòng
20.822673,106.55885699999999,MSB,200,62,,,Huyện An Lão,,Phố Lê Lợi,Hải Phòng
20.85701,106.68249666666667,ACB,927,13,,,Quận Hồng Bàng,,Phố Trần Hưng Đạo,Hải Phòng
20.843310000000002,106.68283100000002,MBB,202,59,,,Quận Lê Chân,,ngõ 96 Chợ Hàng,Hải Phòng
20.837296153846154,106.67206692307693,MBB,44,54,,vi.dinh,Quận Lê Chân,,Phố Thiên Lôi,Hải Phòng
20.859724999999997,106.69724249999999,MBB,gd2,18,,,Quận Ngô Quyền,,Đường Lê Hồng Phong,Hải Phòng
20.92076181818182,106.56058863636363,MBB,p5i,67,Khách Sử Dụng Loa Ngân Hàng,anh.dao5,Huyện An Dương,,Quốc lộ 5,Hải Phòng
20.85298875,106.67937500000001,VCB,33,36,,,Quận Lê Chân,,Phố Hai Bà Trưng (Cát Dài),Hải Phòng
20.92273875,106.66147124999999,VPB,749,17,,,Huyện Thủy Nguyên,,Đường 25 Tháng 10,Hải Phòng
20.83516294117647,106.6907782352941,TCB,103,35,,vi.dinh,Quận Lê Chân,,Đường Kênh Dương (Quán Nam),Hải Phòng
20.767716,106.607362,MBB,410,15,,,Huyện An Lão,,Phố Quán Rẽ,Hải Phòng
20.765527499999997,106.603405,MBB,830,12,,,Huyện An Lão,,Phố Quán Rẽ,Hải Phòng
20.7541275,106.6738325,VTB,53,16,,,Huyện Kiến Thụy,,Phố Vũ Thị Ngọc Toàn,Hải Phòng
20.812224285714287,106.64369857142857,not defined or m2m,209,40,Không tìm thấy điểm bán,linh.nguyen46,Quận Kiến An,,Đường Trần Nhân Tông,Hải Phòng
20.847603333333332,106.72122,MBB,176,21,,,Quận Hải An,,Đường Đông Hải,Hải Phòng
20.846724090909088,106.70839863636364,VIB,688,42,,,Quận Ngô Quyền,,Phố Nguyễn Xuân Nguyên,Hải Phòng
20.812264444444441,106.62579333333333,VTB,F11,35,Khách đợi vp bank tặng loa,linh.nguyen46,Quận Kiến An,,Phố Trần Thành Ngọ,Hải Phòng
20.825326842105262,106.65485263157895,VCB,401,55,Không tìm thấy điểm,linh.nguyen46,Quận Kiến An,,Đường Trường Chinh,Hải Phòng
20.809054,106.62403900000001,SHB,8P9,33,,vi.dinh,Quận Kiến An,,Phố Phan Đăng Lưu,Hải Phòng
20.8116,106.73512166666666,not defined or m2m,95,30,Mc dùng loa ngân hàng,phuong.nguyen50,Quận Hải An,,Phố Thành Tô,Hải Phòng
20.854380000000003,106.67030833333332,NCB,1,51,,vi.dinh,Quận Hồng Bàng,,Phố Tam Bạc,Hải Phòng
20.853130967741933,106.68486483870969,VTB,66,99,,vi.dinh,Quận Ngô Quyền,,Phố Cầu Đất,Hải Phòng
20.839614285714283,106.68544142857144,VTB,886,37,,,Quận Lê Chân,,Phố Chợ Hàng,Hải Phòng
20.84819,106.69045647058823,MBB,792,63,,,Quận Ngô Quyền,,Phố Lạch Tray,Hải Phòng
20.830175,106.69895857142858,VCB,522,54,,vi.dinh,Quận Ngô Quyền,,Phố Lạch Tray,Hải Phòng
20.834836666666668,106.68945814814815,TCB,939,77,,,Quận Lê Chân,,Phố Ngô Kim Tài,Hải Phòng
20.856284137931031,106.68217689655171,ACB,666,80,,vi.dinh,Quận Hồng Bàng,,Phố Đinh Tiên Hoàng,Hải Phòng
20.72586,106.556825,VTB,886,12,,,Huyện Tiên Lãng,,Phố Trung Lãng,Hải Phòng
20.845340000000004,106.70079133333333,TCB,546,39,,vi.dinh,Quận Ngô Quyền,,Phố An Đà,Hải Phòng
20.845078333333333,106.56267083333333,VTB,688,29,,,Huyện An Lão,,Quốc lộ 10,Hải Phòng
20.855199374999998,106.676609375,BIDV,845,65,,vi.dinh,Quận Hồng Bàng,,Phố Nguyễn Đức Cảnh,Hải Phòng
20.851117333333338,106.65290266666663,VTB,F12,57,,vi.dinh,Huyện An Dương,,Đường Nguyễn Văn Linh,Hải Phòng
20.849795454545454,106.65871545454546,BIDV,693,31,Khách hàng sử dụng loa ngân hàng,anh.dao5,Huyện An Dương,,Đường Tôn Đức Thắng,Hải Phòng
20.92331714285714,106.65954571428571,TCB,445,14,,,Huyện Thủy Nguyên,,Đường 25 Tháng 10,Hải Phòng
20.792442727272729,106.67840363636364,TCB,12,33,,vi.dinh,Quận Dương Kinh,,Phố Phương Lung,Hải Phòng
20.84131,106.69470285714286,VCB,601,11,,,Quận Ngô Quyền,,Đường Nguyễn Bỉnh Khiêm,Hải Phòng
20.822258333333334,106.556424,TCB,732,61,,,Huyện An Lão,,Phố Nguyễn Văn Trỗi,Hải Phòng
20.86726125,106.61580125,TCB,735,31,Khách hàng sử dụng loa ngân hàng,anh.dao5,Huyện An Dương,,Quốc lộ 17B,Hải Phòng
20.8373775,106.6377775,VTB,180,35,Không có cửa hàng,anh.dao5,Huyện An Dương,,Đường Nguyễn Trường Tộ,Hải Phòng
20.84496,106.69206279411766,TCB,189,248,,,Quận Ngô Quyền,,Phố Lạch Tray,Hải Phòng
20.849668888888889,106.68914722222223,MBB,590,55,,vi.dinh,Quận Ngô Quyền,,Phố Lạch Tray,Hải Phòng
20.84721,106.67183,VIB,838,31,,,Quận Lê Chân,,Phố Trần Nguyên Hãn,Hải Phòng
20.894474285714285,106.60488428571428,TPB,439,20,,,Quận Hồng Bàng,,Phố Hải Triều,Hải Phòng
20.83735,106.69605333333332,MBB,587,35,,,Quận Ngô Quyền,,Phố Lạch Tray,Hải Phòng
20.9059325,106.73673000000001,MBB,359,32,,vi.dinh,Huyện Thủy Nguyên,,Đường Ngang,Hải Phòng
20.839896666666665,106.71546888888888,TCB,613,44,Mc dùng loa ngân hàng,phuong.nguyen50,Quận Hải An,,Phố Chợ Lũng,Hải Phòng
20.833678529411763,106.69731382352943,VTB,886,81,,vi.dinh,Quận Ngô Quyền,,Phố Lạch Tray,Hải Phòng
20.846395,106.7151175,VPB,999,20,,,Quận Hải An,,Đường Nguyễn Bỉnh Khiêm,Hải Phòng
20.852587826086953,106.71558826086957,MBB,938,68,,phuong.nguyen50,Quận Hải An,,Ngõ 298 Bùi Thị Tự Nhiên,Hải Phòng
20.851351875,106.68170749999999,VCB,989,48,,,Quận Lê Chân,,Phố Tô Hiệu,Hải Phòng
20.860935,106.68222083333333,BIDV,689,43,,vi.dinh,Quận Hồng Bàng,,Phố Đinh Tiên Hoàng,Hải Phòng
20.846740624999995,106.6857,VIB,932,39,,,Quận Lê Chân,,Phố Hàng Kênh,Hải Phòng
20.849985625000002,106.68107875,VCB,896,67,,vi.dinh,Quận Lê Chân,,Phố Hồ Sen,Hải Phòng
20.837566,106.69173599999999,TCB,341,13,,,Quận Lê Chân,,Phố Nguyễn Bình,Hải Phòng
20.842462105263159,106.6901136842105,TPB,212,49,,,Quận Lê Chân,,Phố Lý Thành Long,Hải Phòng
20.844733846153844,106.67178923076925,MBB,438,42,,vi.dinh,Quận Lê Chân,,Phố Hoàng Minh Thảo,Hải Phòng
20.922115714285717,106.67936642857143,MBB,412,57,,vi.dinh,Huyện Thủy Nguyên,,Phố Trần Quốc Toản,Hải Phòng
20.808725555555558,106.62420777777777,VCB,496,32,Khách không cần loa,linh.nguyen46,Quận Kiến An,,Phố Phan Đăng Lưu,Hải Phòng
20.8534,106.68142624999999,TCB,483,30,,,Quận Lê Chân,,Phố Hai Bà Trưng (Cát Dài),Hải Phòng
20.84297,106.68296,MBB,716,12,,,Quận Lê Chân,,ngõ 96 Chợ Hàng,Hải Phòng
20.847506666666668,106.67746666666666,MBB,302,10,,,Quận Lê Chân,,Chợ Cột Đèn,Hải Phòng
20.82383,106.71193166666667,MBB,754,31,Dùng loa ngân hàng,phuong.nguyen50,Quận Hải An,,Phố Lý Hồng Nhật,Hải Phòng
20.813760000000002,106.62336166666667,MBB,538,17,,,Quận Kiến An,,Phố Hoàng Quốc Việt,Hải Phòng
20.876506111111116,106.56464555555554,VCB,566,62,,anh.dao5,Huyện An Dương,,Quốc lộ 17B,Hải Phòng
20.921933333333332,106.68314666666667,TPB,460,13,,,Huyện Thủy Nguyên,,Phố Bồ Đề,Hải Phòng
20.849959166666665,106.68259916666668,TCB,732,31,,,Quận Lê Chân,,Phố Chợ Con,Hải Phòng
20.846760714285711,106.68570428571427,VIB,113,92,,,Quận Lê Chân,,Phố Hàng Kênh,Hải Phòng
20.811709599999997,106.5918132,VCB,301,79,,,Huyện An Lão,,Phố Lương Khánh Thiện,Hải Phòng
20.837079999999997,106.6958075,MBB,482,30,,vi.dinh,Quận Ngô Quyền,,Phố Lạch Tray,Hải Phòng
20.810571333333332,106.62398999999999,TCB,111,55,,vi.dinh,Quận Kiến An,,Phố Phan Đăng Lưu,Hải Phòng
20.822581818181821,106.55633,MBB,798,41,,vi.dinh,Huyện An Lão,,Phố Nguyễn Văn Trỗi,Hải Phòng
20.713903333333331,106.78465999999999,MBB,24,18,,,Quận Đồ Sơn,,Phố Lý Thánh Tông,Hải Phòng
20.892366666666668,106.60432333333333,VIB,493,12,,,Quận Hồng Bàng,,Phố Hải Triều,Hải Phòng
20.823004166666667,106.74056583333333,NCB,501,28,,,Quận Hải An,,Phố Ngô Gia Tự,Hải Phòng
20.799888,106.624622,VTB,385,19,,,Quận Kiến An,,Phố Trần Tất Văn,Hải Phòng
20.8473,106.677428,BIDV,957,57,,,Quận Lê Chân,,Chợ Cột Đèn,Hải Phòng
20.860650322580643,106.69148451612904,MBB,326,72,,vi.dinh,Quận Ngô Quyền,,Phố Lương Khánh Thiện (Phố Ga),Hải Phòng
20.858028333333333,106.684635,MBB,109,32,,vi.dinh,Quận Hồng Bàng,,Phố Trần Hưng Đạo,Hải Phòng
20.7712625,106.7337625,VIB,194,16,,,Quận Dương Kinh,,Đường Phạm Văn Đồng,Hải Phòng
20.84551,106.70132666666667,MBB,370,10,,,Quận Ngô Quyền,,Phố An Đà,Hải Phòng
20.822276666666667,106.72485444444445,TCB,888,28,,,Quận Hải An,,Ga đi,Hải Phòng
20.944938,106.67119399999999,VCB,797,12,,,Huyện Thủy Nguyên,,Quốc lộ 10,Hải Phòng
20.867596153846154,106.65711076923077,MBB,745,32,Khách dùng loa ngân hàng,hoan.dong,Quận Hồng Bàng,,Đường Hùng Vương,Hải Phòng
20.832460624999996,106.692981875,TCB,804,51,,,Quận Lê Chân,,Phố Hào Khê,Hải Phòng
20.747845,106.57862250000001,MBB,88k,11,,,Huyện An Lão,,Đường tỉnh 354,Hải Phòng
20.853094,106.686912,VPB,721,43,,vi.dinh,Quận Ngô Quyền,,Phố Lê Lợi,Hải Phòng
20.876715,106.56409500000001,MBB,3,42,,vi.dinh,Huyện An Dương,,Quốc lộ 17B,Hải Phòng
20.876230952380954,106.56504476190476,ACB,757,79,,anh.dao5,Huyện An Dương,,Quốc lộ 17B,Hải Phòng
20.880415555555558,106.557115,MBB,232,76,,vi.dinh,Huyện An Dương,,Quốc lộ 17B,Hải Phòng
20.92178,106.682365,MBB,2,14,,,Huyện Thủy Nguyên,,Phố Bồ Đề,Hải Phòng
20.824944,106.68567399999999,TCB,363,34,,,Quận Lê Chân,,Phố Trực Cát,Hải Phòng
20.921601666666668,106.68217166666668,TCB,11,45,,vi.dinh,Huyện Thủy Nguyên,,Phố Bồ Đề,Hải Phòng
20.861404,106.696282,VPB,316,22,,,Quận Ngô Quyền,,Đường Đà Nẵng,Hải Phòng
20.861017999999998,106.72008799999999,TCB,215,20,,,Quận Hải An,,Đường Đà Nẵng,Hải Phòng
20.75026,106.751645,MBB,726,10,,,Quận Đồ Sơn,,Đường Phạm Văn Đồng,Hải Phòng
20.861615,106.58929,VCB,221,12,,,Huyện An Dương,,An Kim Hải,Hải Phòng
20.8465,106.70376666666665,VPB,9FB,28,,,Quận Ngô Quyền,,Đường nội bộ lô 22 Lê Hồng Phong,Hải Phòng
20.832459565217388,106.69781217391304,MBB,688,97,,,Quận Ngô Quyền,,Phố Lạch Tray,Hải Phòng
20.847206,106.721408,MBB,88,29,,,Quận Hải An,,Đường Đông Hải,Hải Phòng
20.839812000000002,106.685706,ACB,709,12,,,Quận Lê Chân,,Phố Dân Lập,Hải Phòng
20.802075000000002,106.630618,VPB,6A0,26,,,Quận Kiến An,,Phố Trần Nhội,Hải Phòng
20.830881666666667,106.71094,MBB,508,22,,,Quận Hải An,,Phố Lực Hành,Hải Phòng
20.844631764705881,106.69814999999998,MBB,918,47,,,Quận Ngô Quyền,,Phố An Đà,Hải Phòng
20.863254285714287,106.68091857142858,ACB,189,32,Khách dùng loa ngân hàng,hoan.dong,Quận Hồng Bàng,,Phố Nguyễn Tri Phương,Hải Phòng
20.844207692307691,106.6963076923077,MBB,514,39,,,Quận Ngô Quyền,,Phố An Đà,Hải Phòng
20.843786666666666,106.70034166666667,MBB,321,26,,,Quận Ngô Quyền,,ngách 12/128 An Đà,Hải Phòng
20.861391818181819,106.70011090909091,MSB,196,25,,,Quận Ngô Quyền,,Đường Đà Nẵng,Hải Phòng
20.845064375,106.69204093750001,not defined or m2m,999,82,,,Quận Ngô Quyền,,Phố Lạch Tray,Hải Phòng
20.832946500000002,106.69768200000001,TCB,847,50,,vi.dinh,Quận Ngô Quyền,,Phố Lạch Tray,Hải Phòng
20.85211,106.71763774193548,MBB,682,88,,vi.dinh,Quận Hải An,,Phố Phủ Thượng Đoạn,Hải Phòng
20.852246666666669,106.71756833333333,MBB,852,33,,vi.dinh,Quận Hải An,,Phố Phủ Thượng Đoạn,Hải Phòng
20.831955454545458,106.66103363636364,VCB,889,52,,vi.dinh,Quận Kiến An,,Phố Việt Đức,Hải Phòng
20.912258571428573,106.67407000000001,VIB,559,20,,,Huyện Thủy Nguyên,,Phố Đà Nẵng,Hải Phòng
20.86135125,106.70371875,MBB,338,31,,,Quận Ngô Quyền,,Đường Đà Nẵng,Hải Phòng
20.834457241379308,106.69169172413793,MBB,961,198,,,Quận Lê Chân,,Đường Kênh Dương (Quán Nam),Hải Phòng
20.84542,106.70102,VPB,620,33,,,Quận Ngô Quyền,,Phố An Đà,Hải Phòng
20.809374736842102,106.64101131578946,MBB,500,101,Khách lên hkd được tặng loa,linh.nguyen46,Quận Kiến An,,Đường Trần Nhân Tông,Hải Phòng
20.841330000000003,106.6779025,TCB,650,10,,,Quận Lê Chân,,Phố Miếu Hai Xã,Hải Phòng
20.92195222222222,106.68313222222221,MBB,127,34,Khách Sử Dụng Loa Ngân Hàng,anh.dao5,Huyện Thủy Nguyên,,Phố Bồ Đề,Hải Phòng
20.907756666666668,106.73915222222224,TCB,782,30,,vi.dinh,Huyện Thủy Nguyên,,Đường Ngang,Hải Phòng
20.826336666666666,106.55595833333334,BIDV,900,20,,,Huyện An Lão,,Phố Nguyễn Văn Trỗi,Hải Phòng
20.856403333333336,106.68247,TCB,328,42,,vi.dinh,Quận Hồng Bàng,,Phố Đinh Tiên Hoàng,Hải Phòng
20.8411675,106.6672875,VCB,190,32,,vi.dinh,Quận Lê Chân,,Phố Trần Nguyên Hãn,Hải Phòng
20.823834285714288,106.7119357142857,MBB,930,32,,vi.dinh,Quận Hải An,,Phố Lý Hồng Nhật,Hải Phòng
20.839612903225806,106.69514806451613,MBB,787,188,,vi.dinh,Quận Ngô Quyền,,Phố Lạch Tray,Hải Phòng
20.856920625,106.686661875,VPB,248,28,,,Quận Ngô Quyền,,Phố Phạm Ngũ Lão,Hải Phòng
20.844513571428571,106.6922857142857,TCB,907,70,,vi.dinh,Quận Ngô Quyền,,Phố Lạch Tray,Hải Phòng
20.84203888888889,106.68221444444443,TCB,834,21,,,Quận Lê Chân,,Phố Hồ Sen,Hải Phòng
20.845322499999995,106.70072850000003,MBB,887,43,,,Quận Ngô Quyền,,Phố An Đà,Hải Phòng
20.859723333333335,106.69382166666666,TCB,470,45,,vi.dinh,Quận Ngô Quyền,,Phố Lê Lợi,Hải Phòng
20.892294444444445,106.59553,VIB,986,33,,vi.dinh,Huyện An Dương,,Đường Hùng Vương,Hải Phòng
20.839601538461537,106.69529538461539,MBB,160,39,,vi.dinh,Quận Ngô Quyền,,Phố Lạch Tray,Hải Phòng
20.793646666666664,106.71472,TCB,18,18,,,Quận Dương Kinh,,Đường Phạm Văn Đồng,Hải Phòng
20.821980434782613,106.65151130434785,TCB,982,39,,vi.dinh,Quận Kiến An,,Phố Đồng Hòa,Hải Phòng
20.90637263157895,106.57484789473685,PVCOM,517,55,,vi.dinh,Huyện An Dương,,Quốc lộ 5,Hải Phòng
20.859638,106.69039599999999,MBB,819,13,,,Quận Ngô Quyền,,Phố Lương Khánh Thiện (Phố Ga),Hải Phòng
20.830161363636364,106.68666818181818,VCB,509,84,,vi.dinh,Quận Lê Chân,,Phố Nguyễn Tất Tố,Hải Phòng
20.832980571428571,106.69347657142858,VTB,20,88,,,Quận Lê Chân,,Phố Hào Khê,Hải Phòng
20.891482857142854,106.60489285714286,BIDV,683,20,,,Quận Hồng Bàng,,Phố Hải Triều,Hải Phòng
20.845171052631581,106.70027578947369,VPB,220,61,,,Quận Ngô Quyền,,Phố An Đà,Hải Phòng
20.835395000000002,106.690709,TPB,113,31,,vi.dinh,Quận Lê Chân,,Đường Kênh Dương (Quán Nam),Hải Phòng
20.838784166666667,106.68266333333332,TCB,424,37,,,Quận Lê Chân,,Phố Hồ Sen,Hải Phòng
20.755175555555553,106.6665,TCB,952,32,,,Huyện Kiến Thụy,,Phố Thọ Xuân,Hải Phòng
20.843690000000002,106.693682,TCB,616,41,,,Quận Ngô Quyền,,Phố An Đà,Hải Phòng
20.77035,106.58498,MBB,999,18,,,Huyện An Lão,,Đường tỉnh 362,Hải Phòng
20.870920909090909,106.57763727272729,VPB,405,30,Khách đã có loa Ngân Hàng,anh.dao5,Huyện An Dương,,Quốc lộ 17B,Hải Phòng
20.828099230769229,106.68660384615384,ACB,661,31,,vi.dinh,Quận Lê Chân,,Đường Võ Nguyên Giáp,Hải Phòng
20.854833333333335,106.68501499999999,MBB,480,77,,,Quận Ngô Quyền,,Phố Lương Khánh Thiện (Phố Ga),Hải Phòng
20.845109999999995,106.68032058823529,BIDV,610,51,,,Quận Lê Chân,,Phố Miếu Hai Xã,Hải Phòng
20.853306666666668,106.65107833333334,MBB,576,20,,,Huyện An Dương,,Đường Máng Nước,Hải Phòng
20.966209999999997,106.67101307692309,TPB,289,35,,vi.dinh,Huyện Thủy Nguyên,,Quốc lộ 10,Hải Phòng
20.723035384615383,106.55384538461539,VTB,S01,24,,,Huyện Tiên Lãng,,Phố Phạm Ngọc Đa,Hải Phòng
20.84266,106.69037692307693,TCB,933,35,,vi.dinh,Quận Lê Chân,,Phố Lý Thành Long,Hải Phòng
20.847904210526316,106.72054210526315,TCB,926,63,,vi.dinh,Quận Hải An,,Phố Vườn Hồng,Hải Phòng
20.861744545454545,106.67756363636363,VCB,274,37,Khách nghi ngờ lừa đảo,hoan.dong,Quận Hồng Bàng,,Phố Bạch Đằng,Hải Phòng
20.823802941176467,106.55613588235293,MBB,523,41,,,Huyện An Lão,,Phố Nguyễn Văn Trỗi,Hải Phòng
20.845254545454548,106.66519727272727,TCB,534,18,,,Quận Lê Chân,,Phố Nguyễn Công Hòa,Hải Phòng
20.86868,106.63873,MBB,856,13,,,Quận Hồng Bàng,,Quốc lộ 5,Hải Phòng
20.84366923076923,106.69082384615385,MBB,998,22,,,Quận Lê Chân,,Phố Đình Đông,Hải Phòng
20.833121538461537,106.66331923076923,TCB,657,43,Khách vừa được ngân hàng tặng loa HKD,linh.nguyen46,Quận Kiến An,,Phố Quán Trữ,Hải Phòng
20.828904166666668,106.70089916666667,MBB,806,57,,phuong.nguyen50,Quận Hải An,,Phố Cát Bi,Hải Phòng
20.810498636363636,106.62398272727272,MBB,714,109,MC mới được tech tặng loa,linh.nguyen46,Quận Kiến An,,Phố Phan Đăng Lưu,Hải Phòng
20.836320505050505,106.68986979797981,BIDV,210,298,,,Quận Lê Chân,,Đường Kênh Dương (Quán Nam),Hải Phòng
20.84409125,106.6696175,MBB,626,30,,,Quận Lê Chân,,Phố Trần Nguyên Hãn,Hải Phòng
20.84392,106.69481999999999,ACB,11,10,,,Quận Ngô Quyền,,Phố An Đà,Hải Phòng
20.802180909090911,106.63074363636363,BIDV,69,30,,vi.dinh,Quận Kiến An,,Phố Hương Sơn,Hải Phòng
20.724195,106.553135,BIDV,869,20,,,Huyện Tiên Lãng,,Phố Phú Kê,Hải Phòng
20.921476666666667,106.64510666666666,TCB,651,15,,,Huyện Thủy Nguyên,,Đường tỉnh 352,Hải Phòng
20.841903333333335,106.68237333333333,MSB,606,40,,,Quận Lê Chân,,Phố Hồ Sen,Hải Phòng
20.861396666666664,106.69740777777778,TCB,72,31,,vi.dinh,Quận Ngô Quyền,,Đường Đà Nẵng,Hải Phòng
20.908295000000003,106.739845,TCB,352,25,,,Huyện Thủy Nguyên,,Đường Ngang,Hải Phòng
20.877137692307691,106.56343807692309,BIDV,892,115,Bán xung quang leadcout cách điểm 40m,anh.dao5,Huyện An Dương,,Quốc lộ 17B,Hải Phòng
20.860858461538456,106.68225230769229,ABB,205,34,Không thành công,hoan.dong,Quận Hồng Bàng,,Phố Đinh Tiên Hoàng,Hải Phòng
20.877648999999998,106.56227200000001,TCB,555,38,,anh.dao5,Huyện An Dương,,Quốc lộ 17B,Hải Phòng
20.844678431372547,106.69221470588235,BIDV,7V1,115,,,Quận Ngô Quyền,,Phố Lạch Tray,Hải Phòng
20.92195222222222,106.68313222222221,MBB,127,34,,vi.dinh,Huyện Thủy Nguyên,,Phố Bồ Đề,Hải Phòng
20.838401578947366,106.68685684210526,TCB,185,61,,vi.dinh,Quận Lê Chân,,Phố Dân Lập,Hải Phòng
20.834441538461537,106.66923923076924,MBB,432,50,,vi.dinh,Quận Lê Chân,,Đường Nguyễn Văn Linh,Hải Phòng
20.849718,106.67276799999999,MBB,941,75,,,Quận Lê Chân,,Phố Tô Hiệu,Hải Phòng
20.875852000000002,106.56553600000001,MBB,755,16,,,Huyện An Dương,,Quốc lộ 17B,Hải Phòng
20.8366775,106.6779,TCB,897,19,,,Quận Lê Chân,,Phố Miếu Hai Xã,Hải Phòng
20.839685714285714,106.69906714285715,TCB,203,28,,,Quận Ngô Quyền,,Phố Nguyễn Bình,Hải Phòng
20.8364675,106.69039900000001,MBB,238,51,,vi.dinh,Quận Lê Chân,,Phố Lê Văn Thuyết,Hải Phòng
20.8758325,106.5662775,BIDV,47,12,,,Huyện An Dương,,Quốc lộ 17B,Hải Phòng
20.828656249999998,106.686384375,VIB,803,33,,,Quận Lê Chân,,Đường Võ Nguyên Giáp,Hải Phòng
20.83305625,106.69764624999999,VPB,901,19,,,Quận Ngô Quyền,,Phố Lạch Tray,Hải Phòng
20.841495000000002,106.69272571428571,OCB,922,31,,,Quận Ngô Quyền,,Ngõ Đồng Tâm (274A Lạch Tray),Hải Phòng
20.842817500000002,106.68207187499999,MBB,780,47,,vi.dinh,Quận Lê Chân,,Phố Hồ Sen,Hải Phòng
20.854876666666662,106.67554666666666,VPB,112,31,,vi.dinh,Quận Hồng Bàng,,Phố Nguyễn Đức Cảnh,Hải Phòng
20.914515333333334,106.67453466666666,VTB,868,48,,vi.dinh,Huyện Thủy Nguyên,,Phố Đà Nẵng,Hải Phòng
20.812178000000003,106.625864,BIDV,507,11,,,Quận Kiến An,,Phố Trần Thành Ngọ,Hải Phòng
20.833763684210531,106.70197526315789,VTB,886,65,,phuong.nguyen50,Quận Hải An,,Phố Văn Cao,Hải Phòng
20.841684285714287,106.69358000000001,ACB,779,16,,,Quận Ngô Quyền,,Phố Lạch Tray,Hải Phòng
20.813451428571426,106.62582285714285,ACB,800,34,,vi.dinh,Quận Kiến An,,Phố Trần Thành Ngọ,Hải Phòng
20.79428625,106.678601875,VPB,964,37,,,Quận Dương Kinh,,Đường Mạc Đăng Doanh,Hải Phòng
20.846000624999995,106.694439375,ACB,975,67,,,Quận Ngô Quyền,,Đường vòng Hồ An Biên,Hải Phòng
20.860291999999998,106.69110666666667,TCB,206,41,,,Quận Ngô Quyền,,Phố Lương Khánh Thiện (Phố Ga),Hải Phòng
20.788537619047617,106.67837761904762,MBB,907,81,,,Huyện Kiến Thụy,,Phố Phong Cầu,Hải Phòng
20.836332666666671,106.701826,MBB,918,56,,,Quận Ngô Quyền,,Phố Đỗ Nhuận,Hải Phòng
20.7567,106.7463025,MBB,222,22,,,Quận Dương Kinh,,Đường Phạm Văn Đồng,Hải Phòng
20.822133333333333,106.55825333333333,MBB,747,17,,,Huyện An Lão,,Phố Lê Lợi,Hải Phòng
20.86360909090909,106.66198545454544,TCB,533,25,,,Quận Hồng Bàng,,Manhattan 11,Hải Phòng
20.855011,106.71217299999999,MBB,18,33,,vi.dinh,Quận Hải An,,Ngõ 264 Phương Lưu,Hải Phòng
20.877861428571428,106.56179142857142,TCB,7,25,,,Huyện An Dương,,Quốc lộ 17B,Hải Phòng
20.921225833333335,106.68135416666667,VTB,892,38,,anh.dao5,Huyện Thủy Nguyên,,Phố Bồ Đề,Hải Phòng
20.923983939393938,106.65349272727273,SACOM,9,121,,vi.dinh,Huyện Thủy Nguyên,,Đường 25 Tháng 10,Hải Phòng
20.87981,106.55954,TCB,679,39,Khách hàng sử dụng loa ngân hàng,anh.dao5,Huyện An Dương,,Quốc lộ 17B,Hải Phòng
20.847904210526316,106.72054210526315,TCB,926,63,Đã có loa tech tặng miễn phí,phuong.nguyen50,Quận Hải An,,Phố Vườn Hồng,Hải Phòng
20.742754285714284,106.66233428571428,VCB,239,36,,,Huyện Kiến Thụy,,Phố Mạc Thái Tổ,Hải Phòng
20.828836666666668,106.70933000000001,MBB,936,10,,,Quận Hải An,,Phố Ngô Gia Tự,Hải Phòng
20.822210555555554,106.67492722222221,VCB,255,40,,,Quận Lê Chân,,Đường Bùi Viện,Hải Phòng
20.828548666666666,106.684366,TCB,467,53,,,Quận Lê Chân,,Ngõ 713 thiên lôi,Hải Phòng
20.880415555555558,106.557115,MBB,232,76,KH đang sử dụng loa ngân hang,anh.dao5,Huyện An Dương,,Quốc lộ 17B,Hải Phòng
20.729952500000003,106.56479,VTB,886,19,,,Huyện Tiên Lãng,,Phố Triều Đông,Hải Phòng
20.793343571428569,106.71536571428571,MBB,212,33,,,Quận Dương Kinh,,Đường Phạm Văn Đồng,Hải Phòng
20.791706666666666,106.66174,TCB,439,11,,,Quận Dương Kinh,,Đường Mạc Đăng Doanh,Hải Phòng
20.835503333333332,106.67939666666666,VTB,716,12,,,Quận Lê Chân,,Phố Chợ Hàng,Hải Phòng
20.831785,106.66420500000001,BIDV,304,11,,,Quận Kiến An,,Phố Quán Trữ,Hải Phòng
20.861109090909089,106.72038363636365,MBB,374,33,,vi.dinh,Quận Hải An,,Đường Đà Nẵng,Hải Phòng
20.83061727272727,106.67894818181819,VPB,692,44,,vi.dinh,Quận Lê Chân,,Ngõ 453 thiên Lôi,Hải Phòng
20.830484,106.678204,TCB,701,19,,,Quận Lê Chân,,Phố Thiên Lôi,Hải Phòng
20.685679999999998,106.48147666666667,MBB,m20,10,,,Huyện Vĩnh Bảo,,Quốc lộ 10,Hải Phòng
20.844954705882355,106.56240117647059,VTB,333,56,,,Huyện An Lão,,Quốc lộ 10,Hải Phòng
20.836555873015872,106.69082968253967,BIDV,964,234,,vi.dinh,Quận Lê Chân,,Phố Nguyễn Bình,Hải Phòng
20.833733333333331,106.69592666666667,SHB,824,15,,,Quận Ngô Quyền,,ngõ 384 lạch tray,Hải Phòng
20.8493525,106.6660875,MBB,308,15,,,Quận Lê Chân,,Phố Phạm Huy Thông,Hải Phòng
20.832277499999996,106.6239975,MBB,614,17,,,Huyện An Dương,,Phố Phan Đăng Lưu,Hải Phòng
20.835088,106.72352599999999,TCB,558,15,,,Quận Hải An,,Phố Trần Hoàn,Hải Phòng
20.851146666666665,106.67096333333335,TCB,138,10,,,Quận Lê Chân,,Ngõ 44 Trần Nguyên Hãn,Hải Phòng
20.858685,106.64087958333334,SeABank,809,51,KH đã có loa,anh.dao5,Huyện An Dương,,Đường Máng Nước,Hải Phòng
20.845064375,106.69204093750001,not defined or m2m,999,82,,vi.dinh,Quận Ngô Quyền,,Phố Lạch Tray,Hải Phòng
20.836022142857143,106.6899107142857,ACB,809,43,,vi.dinh,Quận Lê Chân,,Đường Kênh Dương (Quán Nam),Hải Phòng
20.835432352941179,106.70977784313725,VIB,613,165,,vi.dinh,Quận Hải An,,Phố Trung Lực,Hải Phòng
20.935605000000002,106.63472136363634,SHB,1G1,81,Khách hàng đã sử dụng Loa,anh.dao5,Huyện Thủy Nguyên,,Đường tỉnh 352,Hải Phòng
20.843250256410258,106.69898333333335,MBB,191,87,,,Quận Ngô Quyền,,Đường Lê Quang Đạo,Hải Phòng
20.870998333333333,106.57720933333334,NCB,901,67,Khách sử dụng loa ngân hàng,anh.dao5,Huyện An Dương,,Quốc lộ 17B,Hải Phòng
20.845751428571429,106.72306,MBB,712,33,,vi.dinh,Quận Hải An,,Đường Kiều Hạ,Hải Phòng
20.849959166666665,106.68259916666668,TCB,732,31,,vi.dinh,Quận Lê Chân,,Phố Chợ Con,Hải Phòng
20.8504225,106.67711937500002,VCB,525,34,,,Quận Lê Chân,,Phố Chùa Hàng,Hải Phòng
20.837178536585366,106.69105463414633,TCB,876,99,,,Quận Lê Chân,,Phố Nguyễn Bình,Hải Phòng
20.793032,106.66880400000001,MBB,698,23,,,Quận Dương Kinh,,Đường Mạc Đăng Doanh,Hải Phòng
20.84466764705882,106.69831352941178,VCB,17,57,,,Quận Ngô Quyền,,Phố An Đà,Hải Phòng
20.834703529411769,106.70172352941174,MBB,684,34,,vi.dinh,Quận Ngô Quyền,,Phố Văn Cao,Hải Phòng
20.829788333333333,106.73906,TCB,392,10,,,Quận Hải An,,Đường Nam Hải,Hải Phòng
20.846903333333334,106.69117833333334,KLB,eo2,35,,vi.dinh,Quận Ngô Quyền,,Phố Lạch Tray,Hải Phòng
20.801342222222221,106.62702888888889,VTB,842,40,Tiệm vàng,linh.nguyen46,Quận Kiến An,,Phố Nguyễn Lương Bằng,Hải Phòng
20.796047142857141,106.62227857142857,TCB,496,30,,vi.dinh,Quận Kiến An,,Phố Trần Tất Văn,Hải Phòng
20.889037096774192,106.66698258064517,MBB,220,113,,vi.dinh,Huyện Thủy Nguyên,,Đường tỉnh 352,Hải Phòng
20.837775999999998,106.71525799999999,VCB,640,19,,,Quận Hải An,,Đường Lê Hồng Phong,Hải Phòng
20.85331875,106.71704625000001,ACB,968,41,,vi.dinh,Quận Hải An,,Đường Bùi Thị Từ Nhiên,Hải Phòng
20.9119725,106.6452575,VCB,951,17,,,Huyện Thủy Nguyên,,Đường tỉnh 352,Hải Phòng
20.829402727272726,106.71582636363637,VPB,963,36,,vi.dinh,Quận Hải An,,Phố Ngô Gia Tự,Hải Phòng
20.83197375,106.68913625,MBB,894,45,,vi.dinh,Quận Lê Chân,,Phố Nguyễn Tất Tố,Hải Phòng
20.832666250000003,106.69708374999999,VPB,190,25,,,Quận Ngô Quyền,,Phố Vũ Trọng Khánh,Hải Phòng
20.859427209302321,106.68652232558141,TCB,695,105,Không tìm thấy điểm bán,hoan.dong,Quận Hồng Bàng,,Phố Trần Hưng Đạo,Hải Phòng
20.8390375,106.7168875,OCB,51,12,,,Quận Hải An,,Phố Đằng Hải,Hải Phòng
20.842817500000002,106.68207187499999,MBB,780,47,,,Quận Lê Chân,,Phố Hồ Sen,Hải Phòng
20.838879090909092,106.73514000000002,TCB,422,34,,vi.dinh,Quận Hải An,,Phố Hàng Tổng,Hải Phòng
20.852092380952378,106.68527428571429,BIDV,82,71,,vi.dinh,Quận Lê Chân,,Phố Tô Hiệu,Hải Phòng
20.850689999999997,106.687825,TCB,595,13,,,Quận Ngô Quyền,,Phố Lạch Tray,Hải Phòng
20.877073333333332,106.56352166666667,VTB,794,33,,vi.dinh,Huyện An Dương,,Quốc lộ 17B,Hải Phòng
20.817920769230771,106.54040307692307,VTB,926,60,,,Huyện An Lão,,Đường Ngô Quyền,Hải Phòng
20.808953684210525,106.62410526315787,TCB,239,43,Khách chỉ dùng loa bluetooth,linh.nguyen46,Quận Kiến An,,Phố Phan Đăng Lưu,Hải Phòng
20.852545,106.71742499999999,MBB,150,10,,,Quận Hải An,,Phố Phủ Thượng Đoạn,Hải Phòng
20.899590000000003,106.68740888888888,MBB,585,21,,,Huyện Thủy Nguyên,,xóm giữa Dương Quan,Hải Phòng
20.850099090909094,106.68391727272726,VTB,533,51,,vi.dinh,Quận Lê Chân,,Phố Chợ Con,Hải Phòng
20.832376333333332,106.70245133333334,MBB,762,115,,vi.dinh,Quận Hải An,,Phố Văn Cao,Hải Phòng
20.836478666666665,106.69049533333333,BIDV,743,51,,,Quận Lê Chân,,Phố Nguyễn Bình,Hải Phòng
20.836179565217392,106.69617086956521,MBB,950,113,,,Quận Ngô Quyền,,Phố Lạch Tray,Hải Phòng
20.893810000000002,106.58976666666666,VPB,802,20,,,Huyện An Dương,,Quốc lộ 5,Hải Phòng
20.831774666666668,106.68683066666667,MBB,794,34,,,Quận Lê Chân,,Phố Trại Lẻ,Hải Phòng
20.832381666666667,106.67574416666668,MBB,897,19,,,Quận Lê Chân,,Phố Thiên Lôi,Hải Phòng
20.86125875,106.70673687499999,MBB,606,42,,vi.dinh,Quận Ngô Quyền,,Ngõ 258 Đà Nẵng,Hải Phòng
20.83328125,106.69287125,TCB,185,13,,,Quận Lê Chân,,Đường Kênh Dương (Quán Nam),Hải Phòng
20.764652857142856,106.60163428571428,VTB,S01,19,,,Huyện An Lão,,Phố Quán Rẽ,Hải Phòng
20.81408965517241,106.58653862068968,VTB,111,84,,,Huyện An Lão,,Tỉnh lộ 360,Hải Phòng
20.877635714285717,106.56211642857143,TCB,955,32,,anh.dao5,Huyện An Dương,,Quốc lộ 17B,Hải Phòng
20.857925,106.67693249999999,SACOM,237,20,,,Quận Hồng Bàng,,Phố Tam Bạc,Hải Phòng
20.844925000000003,106.68179166666667,BIDV,742,20,,,Quận Lê Chân,,Phố Hồ Sen,Hải Phòng
20.8205125,106.69763,TCB,423,24,,,Quận Dương Kinh,,Đường Phạm Văn Đồng,Hải Phòng
20.861539999999994,106.69732058823529,BIDV,589,33,,vi.dinh,Quận Ngô Quyền,,Ngõ Lạc Xuân Đài,Hải Phòng
20.805752333333334,106.62415233333333,MBB,78,114,,vi.dinh,Quận Kiến An,,Phố Phan Đăng Lưu,Hải Phòng
20.861811666666664,106.673815,MBB,979,21,,,Quận Hồng Bàng,,Phố Bạch Đằng,Hải Phòng
20.807021428571424,106.62397428571428,SACOM,356,24,,,Quận Kiến An,,Phố Phan Đăng Lưu,Hải Phòng
20.806164117647057,106.62418852941175,MBB,368,99,,vi.dinh,Quận Kiến An,,Phố Phan Đăng Lưu,Hải Phòng
20.833866190476193,106.69224404761906,TCB,89,117,,,Quận Lê Chân,,Đường Kênh Dương (Quán Nam),Hải Phòng
20.921636666666664,106.682247,MBB,648,95,,vi.dinh,Huyện Thủy Nguyên,,Phố Bồ Đề,Hải Phòng
20.835115161290318,106.69659741935486,MSB,757,65,,vi.dinh,Quận Ngô Quyền,,Phố Lạch Tray,Hải Phòng
20.848105714285712,106.68551142857143,not defined or m2m,603,43,,vi.dinh,Quận Lê Chân,,Phố Hàng Kênh,Hải Phòng
20.84721,106.67183,VIB,838,31,,vi.dinh,Quận Lê Chân,,Phố Trần Nguyên Hãn,Hải Phòng
20.846048181818183,106.6922318181818,VTB,NG1,162,,,Quận Ngô Quyền,,Phố Lạch Tray,Hải Phòng
20.846303499999998,106.69711000000001,MBB,868,51,,vi.dinh,Quận Ngô Quyền,,ngõ 81 An Đà,Hải Phòng
20.860291999999998,106.69110666666667,TCB,206,41,,vi.dinh,Quận Ngô Quyền,,Phố Lương Khánh Thiện (Phố Ga),Hải Phòng
20.790353076923079,106.61944692307692,TCB,14,36,Khách chuyển qua dùng loa zalopay,linh.nguyen46,Quận Kiến An,,Phố Trần Tất Văn,Hải Phòng
20.83398,106.69448,TCB,137,11,,,Quận Lê Chân,,Phố Hào Khê,Hải Phòng
20.835174727272729,106.69657145454545,TCB,260,146,,vi.dinh,Quận Ngô Quyền,,Phố Lạch Tray,Hải Phòng
20.86135125,106.70371875,MBB,338,31,,vi.dinh,Quận Ngô Quyền,,Đường Đà Nẵng,Hải Phòng
20.8391825,106.6975325,TCB,874,18,,,Quận Ngô Quyền,,Phố Nguyễn Bình,Hải Phòng
20.922075,106.679165,TCB,16,23,,,Huyện Thủy Nguyên,,Phố Trần Quốc Toản,Hải Phòng
20.810460476190475,106.62397904761906,VPB,682,47,,vi.dinh,Quận Kiến An,,Phố Phan Đăng Lưu,Hải Phòng
20.850594375000004,106.718485,MBB,854,34,,phuong.nguyen50,Quận Hải An,,Phố Phủ Thượng Đoạn,Hải Phòng
20.855810645161291,106.6848270967742,MBB,999,122,,vi.dinh,Quận Ngô Quyền,,Phố Nguyễn Khuyến,Hải Phòng
20.837171818181819,106.69103636363637,MBB,706,29,,,Quận Lê Chân,,Phố Nguyễn Bình,Hải Phòng
20.948704999999997,106.67157499999999,MBB,901,11,,,Huyện Thủy Nguyên,,Quốc lộ 10,Hải Phòng
20.839741052631577,106.69450263157896,VTB,557,45,,vi.dinh,Quận Ngô Quyền,,Phố Lạch Tray,Hải Phòng
20.838155,106.7245425,TCB,866,12,,,Quận Hải An,,Phố Mai Trung Thứ,Hải Phòng
20.845364482758622,106.66498862068966,VPB,510,73,,,Quận Lê Chân,,Phố Nguyễn Công Hòa,Hải Phòng
20.887721111111112,106.68774222222221,MBB,510,45,,vi.dinh,Huyện Thủy Nguyên,,Hữu Quan,Hải Phòng
20.848817500000003,106.69005,TCB,600,24,,,Quận Ngô Quyền,,Phố Lạch Tray,Hải Phòng
20.922155999999998,106.67914999999999,MBB,643,30,,vi.dinh,Huyện Thủy Nguyên,,Phố Trần Quốc Toản,Hải Phòng
20.855867,106.680212,VCB,222,16,,,Quận Hồng Bàng,,Phố Nguyễn Đức Cảnh,Hải Phòng
20.86129857142857,106.70577571428571,TCB,391,18,,,Quận Ngô Quyền,,Đường Đà Nẵng,Hải Phòng
20.83872,106.70019,AGRIBANK,488,10,,,Quận Ngô Quyền,,Phố Văn Cao,Hải Phòng
20.889784,106.6927,VPB,151,30,,vi.dinh,Huyện Thủy Nguyên,,xóm Nam,Hải Phòng
20.843340000000005,106.69275125,BIDV,335,30,,vi.dinh,Quận Ngô Quyền,,Phố Lạch Tray,Hải Phòng
20.84463090909091,106.68191272727272,TCB,291,34,,vi.dinh,Quận Lê Chân,,Phố Hồ Sen,Hải Phòng
20.810498636363636,106.62398272727272,MBB,714,109,,vi.dinh,Quận Kiến An,,Phố Phan Đăng Lưu,Hải Phòng
20.8815075,106.54947875,MBB,802,33,,vi.dinh,Huyện An Dương,,Quốc lộ 17B,Hải Phòng
20.829052000000004,106.68454,TCB,14,38,,,Quận Lê Chân,,Đường Võ Nguyên Giáp,Hải Phòng
20.833121538461537,106.66331923076923,TCB,657,43,,vi.dinh,Quận Kiến An,,Phố Quán Trữ,Hải Phòng
20.846185454545452,106.69148454545456,BIDV,95,43,,vi.dinh,Quận Ngô Quyền,,Phố Lạch Tray,Hải Phòng
20.853464285714288,106.681895,TCB,348,42,,vi.dinh,Quận Lê Chân,,Phố Hai Bà Trưng (Cát Dài),Hải Phòng
20.921593999999995,106.68215133333334,TCB,725,41,Khách hàng được ngân hàng tặng loa,anh.dao5,Huyện Thủy Nguyên,,Phố Bồ Đề,Hải Phòng
20.83907375,106.6971825,OCB,460,19,,,Quận Ngô Quyền,,Phố Nguyễn Bình,Hải Phòng
20.86153,106.689695,MBB,668,18,,,Quận Ngô Quyền,,Phố Điện Biên Phủ,Hải Phòng
20.860365333333338,106.68515633333334,TPB,999,87,,vi.dinh,Quận Hồng Bàng,,Phố Minh Khai,Hải Phòng
20.7943425,106.67995,VTB,402,24,,,Quận Dương Kinh,,Đường Mạc Đăng Doanh,Hải Phòng
20.841496,106.69416133333334,MBB,958,29,,,Quận Ngô Quyền,,Ngõ 199 Lạch Tray,Hải Phòng
20.791779999999996,106.64686250000001,TCB,18,45,,vi.dinh,Quận Kiến An,,Phố Nguyễn Lương Bằng,Hải Phòng
20.83211,106.72953500000001,MBB,936,22,,,Quận Hải An,,Ngõ 362 Đằng Hải,Hải Phòng
20.844088611111111,106.6696025,MBB,326,102,,vi.dinh,Quận Lê Chân,,Phố Trần Nguyên Hãn,Hải Phòng
20.866522,106.61280199999999,BIDV,812,20,,,Huyện An Dương,,Quốc lộ 17B,Hải Phòng
20.841895384615384,106.68232923076924,MBB,343,39,,,Quận Lê Chân,,Phố Hồ Sen,Hải Phòng
20.7955575,106.6942725,MSB,991,13,,,Quận Dương Kinh,,Đường Mạc Đăng Doanh,Hải Phòng
20.847216666666668,106.68493333333333,VTB,463,16,,,Quận Lê Chân,,Phố Nguyễn Công Trứ,Hải Phòng
20.834507727272729,106.68894174242425,VPB,982,336,,,Quận Lê Chân,,lối vào ktx,Hải Phòng
20.845319148936166,106.70073191489362,AGRIBANK,84,113,,vi.dinh,Quận Ngô Quyền,,Phố An Đà,Hải Phòng
20.822155384615389,106.63376384615384,VPB,137,42,Không tìm thấy,linh.nguyen46,Quận Kiến An,,Đường Lê Duẩn,Hải Phòng
20.858978999999998,106.689632,MBB,192,36,,,Quận Ngô Quyền,,Phố Lương Khánh Thiện (Phố Ga),Hải Phòng
20.830370000000002,106.70322625,VTB,S01,17,,,Quận Hải An,,Ngõ 369 Văn Cao,Hải Phòng
20.8013325,106.6257075,VTB,S01,16,,,Quận Kiến An,,Ngõ 39 Nguyễn Lương Bằng,Hải Phòng
20.858566666666665,106.68672000000001,OCB,673,13,,,Quận Ngô Quyền,,Phố Trần Phú,Hải Phòng
20.864311,106.57619049999998,BIDV,26,51,,vi.dinh,Huyện An Dương,,Quốc lộ 10,Hải Phòng
20.832003333333333,106.67657,MBB,990,11,,,Quận Lê Chân,,Phố Đồng Thiện,Hải Phòng
20.846724090909088,106.70839863636364,VIB,688,42,,vi.dinh,Quận Ngô Quyền,,Phố Nguyễn Xuân Nguyên,Hải Phòng
20.852652333333335,106.67746266666666,VTB,F11,84,,vi.dinh,Quận Lê Chân,,Phố Hai Bà Trưng (Cát Dài),Hải Phòng
20.836712631578951,106.68949894736843,TCB,76,61,,vi.dinh,Quận Lê Chân,,Đường Kênh Dương (Quán Nam),Hải Phòng
20.848019999999998,106.7051425,MBB,999,17,,,Quận Ngô Quyền,,Phố Thái Phiên,Hải Phòng
20.870998333333333,106.57720933333334,NCB,901,67,,vi.dinh,Huyện An Dương,,Quốc lộ 17B,Hải Phòng
20.811083571428572,106.62400785714287,not defined or m2m,661,38,,vi.dinh,Quận Kiến An,,Phố Phan Đăng Lưu,Hải Phòng
20.87224,106.57548,VPB,907,14,,,Huyện An Dương,,Quốc lộ 17B,Hải Phòng
20.843069999999997,106.69889041095891,TCB,968,180,,,Quận Ngô Quyền,,Đường Lê Quang Đạo,Hải Phòng
20.881127,106.55191900000001,TCB,632,36,,vi.dinh,Huyện An Dương,,Quốc lộ 17B,Hải Phòng
20.852383636363637,106.67152727272729,VIB,88,49,,,Quận Lê Chân,,Phố Nhà Thương,Hải Phòng
20.917879090909093,106.68045454545454,MBB,210,47,,vi.dinh,Huyện Thủy Nguyên,,Phố Trần Hưng Đạo,Hải Phòng
20.845981,106.702568,VTB,F11,50,,vi.dinh,Quận Ngô Quyền,,Phố An Đà,Hải Phòng
20.86147,106.59411,VTB,886,32,,vi.dinh,Huyện An Dương,,Quốc lộ 17B,Hải Phòng
20.852052142857147,106.68523571428572,SeABank,629,53,,vi.dinh,Quận Lê Chân,,Phố Tô Hiệu,Hải Phòng
20.810519130434784,106.6239747826087,MBB,598,63,,vi.dinh,Quận Kiến An,,Phố Phan Đăng Lưu,Hải Phòng
20.836173888888887,106.69012388888889,MBB,707,42,,vi.dinh,Quận Lê Chân,,Phố Nguyễn Bình,Hải Phòng
20.860365333333338,106.68515633333334,TPB,999,87,Không tìm thấy cửa hàng,hoan.dong,Quận Hồng Bàng,,Phố Minh Khai,Hải Phòng
20.949463333333334,106.67146333333334,MBB,60,16,,,Huyện Thủy Nguyên,,Quốc lộ 10,Hải Phòng
20.893677142857143,106.60485571428572,MSB,843,20,,,Quận Hồng Bàng,,Phố Hải Triều,Hải Phòng
20.838443181818182,106.69523954545453,BIDV,158,52,,,Quận Ngô Quyền,,Phố Nguyễn Bình,Hải Phòng
20.890733333333333,106.59804666666666,BIDV,956,15,,,Huyện An Dương,,Đường Hùng Vương,Hải Phòng
20.876285,106.56497928571429,VTB,632,40,,anh.dao5,Huyện An Dương,,Quốc lộ 17B,Hải Phòng
20.848660000000002,106.698388,VTB,825,21,,,Quận Ngô Quyền,,Phố Đông Khê,Hải Phòng
20.835138,106.69079599999999,VTB,612,12,,,Quận Lê Chân,,Đường Kênh Dương (Quán Nam),Hải Phòng
20.836549545454545,106.69079909090908,MBB,1,72,,vi.dinh,Quận Lê Chân,,Phố Nguyễn Bình,Hải Phòng
20.853270000000002,106.672485,VTB,414,28,,,Quận Lê Chân,,Phố Nhà Thương,Hải Phòng
20.839601538461537,106.69529538461539,MBB,160,39,,,Quận Ngô Quyền,,Phố Lạch Tray,Hải Phòng
20.836478666666665,106.69049533333333,BIDV,743,51,,vi.dinh,Quận Lê Chân,,Phố Nguyễn Bình,Hải Phòng
20.854895000000003,106.6470625,MBB,800,17,,,Huyện An Dương,,Đường Máng Nước,Hải Phòng
20.715203571428567,106.55525214285714,BIDV,635,66,,vi.dinh,Huyện Tiên Lãng,,Rồng,Hải Phòng
20.880276666666667,106.55801555555554,TPB,960,34,Lắp loa cho khách cách điểm Leadcout 40m,anh.dao5,Huyện An Dương,,Quốc lộ 17B,Hải Phòng
20.861339130434782,106.70163391304348,MBB,988,59,,,Quận Ngô Quyền,,Đường Đà Nẵng,Hải Phòng
20.843340000000005,106.69275125,BIDV,335,30,,,Quận Ngô Quyền,,Phố Lạch Tray,Hải Phòng
20.809376363636364,106.53221409090909,PVCOM,2,71,,,Huyện An Lão,,Quốc lộ 10,Hải Phòng
20.84362125,106.6915775,MBB,666,23,,,Quận Lê Chân,,Phố Đình Đông,Hải Phòng
20.845330909090912,106.70072272727272,TCB,11,39,,,Quận Ngô Quyền,,Phố An Đà,Hải Phòng
20.8222125,106.558315,AGRIBANK,272,15,,,Huyện An Lão,,Phố Lê Lợi,Hải Phòng
20.835487999999994,106.688855,OCB,369,29,,,Quận Lê Chân,,Phố Ngô Kim Tài,Hải Phòng
20.840638181818182,106.6937668181818,MBB,984,53,,,Quận Ngô Quyền,,Đường Nguyễn Văn Linh,Hải Phòng
20.88067,106.55557999999999,TCB,222,11,,,Huyện An Dương,,Quốc lộ 17B,Hải Phòng
20.852992,106.676604,TCB,597,24,,,Quận Lê Chân,,Phố Cát Cụt,Hải Phòng
20.844609285714284,106.68191999999999,TCB,905,50,,,Quận Lê Chân,,Phố Hồ Sen,Hải Phòng
20.84207842105263,106.66796789473685,VTB,683,81,,vi.dinh,Quận Lê Chân,,Phố Trần Nguyên Hãn,Hải Phòng
20.855381764705882,106.68269529411765,BIDV,220,53,,vi.dinh,Quận Ngô Quyền,,Phố Trần Nhật Duật,Hải Phòng
20.818311111111111,106.64699666666667,MBB,670,30,Không tìm thấy điểm bán,linh.nguyen46,Quận Kiến An,,Đường Bắc Sơn,Hải Phòng
20.89113857142857,106.64612142857143,TCB,588,22,,,Huyện Thủy Nguyên,,ngõ,Hải Phòng
20.843896904761902,106.68600738095238,OCB,813,113,,,Quận Lê Chân,,Phố Chợ Hàng,Hải Phòng
20.834441538461537,106.66923923076924,MBB,432,50,,,Quận Lê Chân,,Đường Nguyễn Văn Linh,Hải Phòng
20.809054,106.62403900000001,SHB,8P9,33,Khách lắp loa về tk vp bank,linh.nguyen46,Quận Kiến An,,Phố Phan Đăng Lưu,Hải Phòng
20.862786666666668,106.68415999999999,SHINHAN,489,34,Khách dùng loa ngân hàng,hoan.dong,Quận Hồng Bàng,,Phố Hồ Xuân Hương,Hải Phòng
20.833505833333334,106.6974175,not defined or m2m,359,58,,,Quận Ngô Quyền,,Phố Lạch Tray,Hải Phòng
20.83735,106.69605333333332,MBB,587,35,,vi.dinh,Quận Ngô Quyền,,Phố Lạch Tray,Hải Phòng
20.859941999999997,106.639041,TCB,780,27,,,Huyện An Dương,,Đường Máng Nước,Hải Phòng
20.861101818181819,106.63644545454545,BIDV,590,49,,anh.dao5,Huyện An Dương,,Đường Máng Nước,Hải Phòng
20.840494,106.684928,MBB,246,11,,,Quận Lê Chân,,Phố Chợ Hàng,Hải Phòng
20.861315714285716,106.70591428571429,ACB,68,27,,,Quận Ngô Quyền,,Đường Đà Nẵng,Hải Phòng
20.816795384615386,106.62544538461539,TCB,776,33,,vi.dinh,Quận Kiến An,,Phố Hoàng Thiết Tâm,Hải Phòng
20.850308888888886,106.71861666666668,VTB,F11,43,,vi.dinh,Quận Hải An,,Phố Phủ Thượng Đoạn,Hải Phòng
20.862657619047621,106.65706809523809,TCB,358,58,,vi.dinh,Quận Hồng Bàng,,Đường đê Quai Chảo,Hải Phòng
20.726463902439022,106.55829634146343,VCB,966,129,,vi.dinh,Huyện Tiên Lãng,,Phố Trung Lãng,Hải Phòng
20.861272857142854,106.70493,MBB,640,21,,,Quận Ngô Quyền,,Đường Đà Nẵng,Hải Phòng
20.8226575,106.558859375,MSB,424,80,,,Huyện An Lão,,Phố Lê Lợi,Hải Phòng
20.846651333333334,106.71722933333334,TCB,999,43,Mc dùng loa ngân hàng,phuong.nguyen50,Quận Hải An,,Phố Nguyễn Thiếp,Hải Phòng
20.906835,106.71314300000002,MBB,592,23,,,Huyện Thủy Nguyên,,đường bờ đê,Hải Phòng
20.836860909090912,106.69241545454544,VTB,886,92,,,Quận Lê Chân,,Phố Nguyễn Bình,Hải Phòng
20.868119,106.658326,VTB,33,24,,,Quận Hồng Bàng,,tổ dân phố Kiến thiết 3,Hải Phòng
20.831684,106.699088,SHB,568,11,,,Quận Ngô Quyền,,Nam Pháp 2,Hải Phòng
20.868315555555558,106.65206111111111,TPB,963,27,,,Quận Hồng Bàng,,Đường Tôn Đức Thắng,Hải Phòng
20.877035714285718,106.56362071428572,TCB,28,37,Khách hàng sử dụng loa ngân hàng,anh.dao5,Huyện An Dương,,Quốc lộ 17B,Hải Phòng
20.870922,106.5776185,MSB,436,82,,vi.dinh,Huyện An Dương,,Quốc lộ 17B,Hải Phòng
20.861320769230772,106.70479769230769,MBB,12,23,,,Quận Ngô Quyền,,Đường Đà Nẵng,Hải Phòng
20.856066666666671,106.68056466666667,MBB,423,44,Không tìm thấy cửa hàng,hoan.dong,Quận Hồng Bàng,,Phố Nguyễn Đức Cảnh,Hải Phòng
20.80312,106.62597,MBB,80,17,,,Quận Kiến An,,Trần Nhân Tông,Hải Phòng
20.795362222222224,106.62192333333334,TCB,10,19,,,Quận Kiến An,,Phố Trần Tất Văn,Hải Phòng
20.845098,106.67492200000001,VTB,196,24,,,Quận Lê Chân,,đường ven hồ,Hải Phòng
20.8218825,106.55800916666666,TCB,160,45,,,Huyện An Lão,,Phố Lê Lợi,Hải Phòng
20.85959,106.6903375,MBB,111,14,,,Quận Ngô Quyền,,Phố Lương Khánh Thiện (Phố Ga),Hải Phòng
20.888841538461538,106.60501769230768,VPB,9V1,52,,vi.dinh,Quận Hồng Bàng,,Đường Hùng Vương,Hải Phòng
20.921636666666664,106.682247,MBB,648,95,,anh.dao5,Huyện Thủy Nguyên,,Phố Bồ Đề,Hải Phòng
20.861010555555552,106.70678666666667,VIB,103,75,,vi.dinh,Quận Ngô Quyền,,Ngõ 258 Đà Nẵng,Hải Phòng
20.831762727272725,106.69914181818181,MSB,241,41,,vi.dinh,Quận Ngô Quyền,,Nam Pháp 2,Hải Phòng
20.854380000000003,106.67030833333332,NCB,1,51,Không tìm thấy khách hàng,hoan.dong,Quận Hồng Bàng,,Phố Tam Bạc,Hải Phòng
20.845364482758622,106.66498862068966,VPB,510,73,,vi.dinh,Quận Lê Chân,,Phố Nguyễn Công Hòa,Hải Phòng
20.861084999999996,106.70728333333335,NCB,826,22,,,Quận Ngô Quyền,,Đường Đà Nẵng,Hải Phòng
20.844631764705881,106.69814999999998,MBB,918,47,,vi.dinh,Quận Ngô Quyền,,Phố An Đà,Hải Phòng
20.829245714285712,106.71236428571429,TCB,381,23,,,Quận Hải An,,Phố Trung Hành,Hải Phòng
20.860386249999998,106.7149725,MBB,176,18,,,Quận Hải An,,Phố Phủ Thượng Đoạn,Hải Phòng
20.827167142857146,106.67444714285715,MBB,428,21,,,Quận Lê Chân,,Phố Khúc Thừa Dụ,Hải Phòng
20.8468575,106.7059175,VPB,AC6,23,,,Quận Ngô Quyền,,Phố Phùng Chí Kiên,Hải Phòng
20.838803461538461,106.69619384615383,MBB,958,63,,vi.dinh,Quận Ngô Quyền,,Phố Nguyễn Bình,Hải Phòng
20.8446725,106.69827916666667,SeABank,668,49,,,Quận Ngô Quyền,,Phố An Đà,Hải Phòng
20.85298875,106.67937500000001,VCB,33,36,,vi.dinh,Quận Lê Chân,,Phố Hai Bà Trưng (Cát Dài),Hải Phòng
20.836270833333337,106.68989638888888,OCB,453,255,,,Quận Lê Chân,,Đường Kênh Dương (Quán Nam),Hải Phòng
20.824493333333333,106.71161333333333,VCB,335,16,,,Quận Hải An,,Phố Cát Bi,Hải Phòng
20.852061363636363,106.68524727272727,TCB,859,53,,,Quận Lê Chân,,Phố Tô Hiệu,Hải Phòng
20.859088333333332,106.68711166666665,MBB,978,16,,,Quận Hồng Bàng,,Phố Trần Phú,Hải Phòng
20.83197375,106.68913625,MBB,894,45,,,Quận Lê Chân,,Phố Nguyễn Tất Tố,Hải Phòng
20.850224,106.718887,TCB,872,30,,vi.dinh,Quận Hải An,,Ngõ 383 Phù Thượng Đoạn,Hải Phòng
20.822744999999998,106.63442125,MBB,10,43,,vi.dinh,Quận Kiến An,,Đường Lê Duẩn,Hải Phòng
20.827651428571428,106.6818592857143,TCB,907,38,,vi.dinh,Quận Lê Chân,,Phố Thiên Lôi,Hải Phòng
20.821719230769233,106.55977461538461,VTB,F11,34,,vi.dinh,Huyện An Lão,,Đường Trần Tất Văn,Hải Phòng
20.855637435897439,106.67905871794873,TCB,970,119,,vi.dinh,Quận Hồng Bàng,,Phố Nguyễn Đức Cảnh,Hải Phòng
20.8364675,106.69039900000001,MBB,238,51,,,Quận Lê Chân,,Phố Lê Văn Thuyết,Hải Phòng
20.824883846153845,106.71073538461539,MBB,88,30,,vi.dinh,Quận Hải An,,Phố Cát Bi,Hải Phòng
20.854656666666667,106.67415333333335,TCB,584,14,,,Quận Hồng Bàng,,Phố Nguyễn Đức Cảnh,Hải Phòng
20.687683636363637,106.47976090909091,VTB,195,30,,vi.dinh,Huyện Vĩnh Bảo,,Đường 20/8,Hải Phòng
20.831566603773577,106.69212283018868,VTB,886,193,,vi.dinh,Quận Lê Chân,,Phố Hào Khê,Hải Phòng
20.907957777777778,106.67936777777778,TCB,918,46,,vi.dinh,Huyện Thủy Nguyên,,Phố Trần Hưng Đạo,Hải Phòng
20.844426,106.620227,MBB,190,39,,vi.dinh,Huyện An Dương,,Đường Nguyễn Trường Tộ,Hải Phòng
20.793487,106.62098999999999,TCB,390,33,Không tìm thấy,linh.nguyen46,Quận Kiến An,,Phố Trần Tất Văn,Hải Phòng
20.845745,106.70201714285713,TCB,823,46,,,Quận Ngô Quyền,,Phố An Đà,Hải Phòng
20.843069999999997,106.69889041095891,TCB,968,180,,vi.dinh,Quận Ngô Quyền,,Đường Lê Quang Đạo,Hải Phòng
20.877876666666669,106.56177666666667,MBB,21,15,,,Huyện An Dương,,Quốc lộ 17B,Hải Phòng
20.859062222222224,106.66681333333334,TCB,991,22,,,Quận Hồng Bàng,,Phố Hùng Duệ Vương,Hải Phòng
20.807617333333333,106.624156,VTB,886,43,,vi.dinh,Quận Kiến An,,Phố Phan Đăng Lưu,Hải Phòng
20.91423,106.71220666666667,BIDV,245,31,,vi.dinh,Huyện Thủy Nguyên,,đường bờ đê,Hải Phòng
20.765391666666666,106.60294166666667,MBB,649,13,,,Huyện An Lão,,Phố Quán Rẽ,Hải Phòng
20.837854444444446,106.71524333333333,VCB,620,24,,,Quận Hải An,,Đường Lê Hồng Phong,Hải Phòng
20.845410000000005,106.67035,VPB,218,33,,vi.dinh,Quận Lê Chân,,Phố Nguyễn Công Hòa,Hải Phòng
20.74172,106.660924,MBB,669,34,,vi.dinh,Huyện Kiến Thụy,,Phố Mạc Thái Tổ,Hải Phòng
20.92076181818182,106.56058863636363,MBB,p5i,67,,vi.dinh,Huyện An Dương,,Quốc lộ 5,Hải Phòng
20.858355833333331,106.68622083333334,VCB,301,34,,vi.dinh,Quận Hồng Bàng,,Phố Trần Phú,Hải Phòng
20.857546666666664,106.70457888888889,VTB,173,32,,vi.dinh,Quận Ngô Quyền,,Đường nội bộ lô 3 Lê Hồng Phong,Hải Phòng
20.85626303030303,106.6819590909091,TCB,693,81,,vi.dinh,Quận Hồng Bàng,,Phố Hoàng Văn Thụ,Hải Phòng
20.843324117647061,106.69964882352942,TCB,581,42,,,Quận Ngô Quyền,,Ngõ 128 An Đà,Hải Phòng
20.825171666666666,106.70411833333334,NCB,501,11,,,Quận Hải An,,Đường Bùi Viện,Hải Phòng
20.848651111111113,106.67142555555554,TCB,724,36,,vi.dinh,Quận Lê Chân,,Phố Trần Nguyên Hãn,Hải Phòng
20.842006666666663,106.69503333333334,MBB,632,15,,,Quận Ngô Quyền,,Ngõ 199 Lạch Tray,Hải Phòng
20.843896904761902,106.68600738095238,OCB,813,113,,vi.dinh,Quận Lê Chân,,Phố Chợ Hàng,Hải Phòng
20.859163333333335,106.68715416666667,TPB,56,42,,vi.dinh,Quận Hồng Bàng,,Phố Trần Phú,Hải Phòng
20.861155555555555,106.68129222222223,ACB,657,33,,vi.dinh,Quận Hồng Bàng,,Phố Phạm Bá Trực,Hải Phòng
20.847945238095239,106.6907042857143,TCB,762,63,,,Quận Ngô Quyền,,Phố Lạch Tray,Hải Phòng
20.8116,106.73512166666666,not defined or m2m,95,30,,vi.dinh,Quận Hải An,,Phố Thành Tô,Hải Phòng
20.861406896551721,106.69923689655172,not defined or m2m,769,78,,vi.dinh,Quận Ngô Quyền,,Đường Đà Nẵng,Hải Phòng
20.813451428571426,106.62582285714285,ACB,800,34,Không tìm thấy điểm bán,linh.nguyen46,Quận Kiến An,,Phố Trần Thành Ngọ,Hải Phòng
20.846880434782605,106.68128521739131,BIDV,942,62,,vi.dinh,Quận Lê Chân,,Phố Dư Hàng,Hải Phòng
20.858738260869561,106.68679173913044,VTB,686,62,,vi.dinh,Quận Hồng Bàng,,Phố Trần Phú,Hải Phòng
20.835072307692307,106.68935999999998,VPB,390,62,,,Quận Lê Chân,,Phố Ngô Kim Tài,Hải Phòng
20.847207647058827,106.70570588235294,OCB,110,45,,vi.dinh,Quận Ngô Quyền,,Đường nội bộ lô 22 Lê Hồng Phong,Hải Phòng
20.831098936170214,106.68812170212767,MBB,424,142,,vi.dinh,Quận Lê Chân,,Phố Trại Lẻ,Hải Phòng
20.834446428571425,106.68883785714286,BIDV,384,36,,,Quận Lê Chân,,lối vào ktx,Hải Phòng
20.828708,106.686238,TPB,7,54,,vi.dinh,Quận Lê Chân,,Đường Võ Nguyên Giáp,Hải Phòng
20.840017500000002,106.69489,VCB,101,18,,,Quận Ngô Quyền,,Phố Lạch Tray,Hải Phòng
20.880894,106.55394000000001,MBB,561,30,,vi.dinh,Huyện An Dương,,Quốc lộ 17B,Hải Phòng
20.860740909090907,106.66683,MBB,148,34,Khách dùng loa ngân hàng,hoan.dong,Quận Hồng Bàng,,Phố Hùng Duệ Vương,Hải Phòng
20.861313333333332,106.70474,VIB,123,15,,,Quận Ngô Quyền,,Đường Đà Nẵng,Hải Phòng
20.85092625,106.71835875,TCB,790,39,Mc đã có loa ngân hàng,phuong.nguyen50,Quận Hải An,,Phố Phủ Thượng Đoạn,Hải Phòng
20.84629833333333,106.70246500000002,TCB,192,47,,vi.dinh,Quận Ngô Quyền,,Phố Đông Khê,Hải Phòng
20.90633,106.72816,MBB,626,20,,,Huyện Thủy Nguyên,,đường đê,Hải Phòng
20.83484,106.66243700000001,TCB,525,50,Khách đã lắp loa Momo,linh.nguyen46,Quận Kiến An,,Phố Quán Trữ,Hải Phòng
20.909474166666666,106.74263416666668,VIB,291,19,,,Huyện Thủy Nguyên,,Đường Ngang,Hải Phòng
20.880733636363637,106.55578727272729,VPB,36,46,,anh.dao5,Huyện An Dương,,Quốc lộ 17B,Hải Phòng
20.849429999999998,106.68949571428571,TCB,695,31,,vi.dinh,Quận Ngô Quyền,,Phố Lạch Tray,Hải Phòng
20.832071,106.686068,MBB,102,33,,,Quận Lê Chân,,Phố Trại Lẻ,Hải Phòng
20.83484,106.66243700000001,TCB,525,50,,vi.dinh,Quận Kiến An,,Phố Quán Trữ,Hải Phòng
