lat,lng,bank,tail3,trans,note,pic,district,ward,street
21.041976428571427,105.82075785714287,MSB,743,44,,dat.tran8,Quận Tây Hồ,,Đường Hoàng Hoa Thám
21.061380952380954,105.77312047619047,MBB,54,92,,doan.ngo,Quận Bắc Từ Liêm,,Đường Phan Bá Vành
20.96748625,105.87133125,TCB,989,34,,anh.vu10,Quận Hoàng Mai,,Phố Yên Sở
21.035508461538459,105.74050076923076,BIDV,561,30,,cong.nguyen3,Quận Nam Từ Liêm,,Phố Hòe Thị
21.035144166666669,105.77293583333332,MBB,808,53,,phuong.nguyen44,Quận Cầu Giấy,,Phố Dương Khuê
20.99716,105.82688,MBB,820,13,,hai.le8,Quận Thanh Xuân,Phường Khương Mai,Phố Nguyễn Ngọc Nại
20.991305,105.79585833333333,not defined or m2m,279,38,,phat.nguyen7,Quận Nam Từ Liêm,,Đường Lương Thế Vinh
20.985718,105.78437533333333,TPB,888,39,,vinh.nguyen12,Quận Hà Đông,,Phố Nguyễn Văn Lộc
21.037053,105.786662,MSB,2,45,Mc đã có loa của bank,bao.pham1,Quận Cầu Giấy,,Đường Xuân Thủy
21.07429,105.813144,TCB,785,29,,,Quận Tây Hồ,Phường Nhật Tân,Đường Lạc Long Quân
21.126047857142858,105.77269214285714,BIDV,738,28,,,Huyện Đông Anh,Xã Kim Chung,Đường Hậu Dưỡng
21.061453333333333,105.78119000000001,TPB,92,13,,,Quận Bắc Từ Liêm,Phường Cổ Nhuế 2,Đường Cổ Nhuế
21.011895999999997,105.85846599999999,TCB,995,33,Có loa r,minh.nguyen24,Quận Hai Bà Trưng,,Phố Thọ Lão
20.995176842105263,105.64191052631578,TCB,301,67,,ngoc.duong1,Huyện Quốc Oai,,Ngách 19/35 Đường Hoàng Xá
20.970571666666668,105.78200333333334,TCB,562,17,,,Quận Hà Đông,Phường Nguyễn Trãi,Phố Tô Hiệu
21.038517777777781,105.84848666666667,TCB,261,31,,thuong.nguyen9,Quận Hoàn Kiếm,,Phố Hàng Giấy
21.017268333333334,105.80621166666667,BIDV,627,31,không gặp chủ,tien.truong,Quận Đống Đa,,Ngõ 76 Phố Nguyễn Chí Thanh
21.02931222222222,105.84000555555556,TCB,793,39,,hai.le8,Quận Ba Đình,,Phố Nguyễn Thái Học
20.990695000000002,105.85903625,TCB,170,30,,,Quận Hoàng Mai,,Ngõ 48 Mai Động
21.031378750000002,105.91505000000001,MBB,979,32,Kcnc,huy.le16,Quận Long Biên,,Phố Vũ Xuân Thiều
20.98307,105.86188428571428,MBB,368,27,,truong.duong,Quận Hoàng Mai,Phường Hoàng Văn Thụ,Phố Tân Mai
20.994693684210532,105.75934273684207,MBB,866,293,,,Quận Nam Từ Liêm,,Ngõ 252 Đường Đại Mỗ
20.97919,105.86521,MBB,888,11,,,Quận Hoàng Mai,Phường Yên Sở,Ngõ 587 Tam Trinh
21.1271975,105.77357,MBB,274,18,,,Huyện Đông Anh,Xã Kim Chung,Đường Hậu Dưỡng
21.009392857142856,105.81932714285716,MBB,566,22,,,Quận Đống Đa,Phường Thịnh Quang,Phố Thái Thịnh
20.977078333333335,105.79138666666667,TCB,922,18,,,Quận Hà Đông,Phường Văn Quán,Đường 19 Tháng 5
21.011536,105.801108,MBB,804,14,,,Quận Cầu Giấy,Phường Trung Hoà,Ngõ 69 Trần Duy Hưng
21.085195000000002,105.627235,MBB,m1i,41,,,Huyện Phúc Thọ,,Đường tỉnh 421B
21.017118571428572,105.85569285714286,TCB,223,25,,,Quận Hai Bà Trưng,Phường Phạm Đình Hổ,Phố Lò Đúc
20.962449411764705,105.86494470588235,TCB,995,53,,,Quận Hoàng Mai,,Phố Hưng Thịnh
20.999671428571425,105.85039714285715,VTB,850,18,,,Quận Hai Bà Trưng,Phường Bạch Mai,Ngõ 392 Phố Bạch Mai
20.983439047619051,105.80052857142859,VCB,929,106,,hai.le8,Quận Thanh Xuân,,Ngõ 97 Triều Khúc
21.009191666666666,105.77961833333335,VCB,106,11,,,Quận Nam Từ Liêm,Phường Mễ Trì,Ngõ 32 Phố Đồng Me
21.0304945,105.8486075,TCB,329,41,,thuong.nguyen9,Quận Hoàn Kiếm,,Phố Chân Cầm
21.041031999999998,105.782748,BIDV,897,34,,,Quận Cầu Giấy,,Ngõ 215 Phố Trần Quốc Hoàn
21.086515000000002,105.63797833333334,MBB,648,16,,,Huyện Phúc Thọ,Xã Hiệp Thuận,Quốc lộ 32
21.02663379310345,105.51933310344826,MBB,562,88,,tuan.tran8,Huyện Thạch Thất,,Quốc lộ 21
21.03902125,105.75854,TCB,554,46,,doan.ngo,Quận Bắc Từ Liêm,,Đường Phúc Diễn
20.997196666666667,105.78770066666667,TCB,82,43,,phat.nguyen7,Quận Nam Từ Liêm,,Đường Lương Thế Vinh
20.971443636363635,105.77719909090908,TPB,992,24,,,Quận Hà Đông,Phường Nguyễn Trãi,Phố Hoàng Hoa Thám
21.02878,105.77294333333333,TCB,222,30,,phat.nguyen7,Quận Nam Từ Liêm,,Đường Phú Mỹ
20.998676000000003,105.805947,MBB,640,43,,,Quận Thanh Xuân,,Phố Nguyễn Huy Tưởng
20.977816842105266,105.83589210526317,TPB,886,36,,,Quận Hoàng Mai,,Phố Nguyễn Cảnh Dị
21.1414925,105.85430125000002,TCB,354,39,Khách đã có loa,hiep.nguyen2,Huyện Đông Anh,,Đường Đản Dị
21.027291111111111,105.82435333333332,VCB,586,29,,hung.nguyen27,Quận Đống Đa,Phường Cát Linh,Phố Giảng Võ
21.111831428571431,105.78977285714285,BIDV,126,36,Không tìm thấy,anh.nguyen93,Huyện Đông Anh,,Đường 23B
21.015194,105.848866,MBB,668,14,,,Quận Hai Bà Trưng,Phường Nguyễn Du,Phố Tuệ Tĩnh
21.022863043478264,105.7687247826087,VTB,546,73,,,Quận Nam Từ Liêm,,Phố Tân Mỹ
20.986877857142854,105.79187785714286,VPB,699,43,,cong.nguyen3,Quận Nam Từ Liêm,,Ngõ 67 Phùng Khoang
20.98835,105.79219499999999,TCB,19,12,,,Quận Nam Từ Liêm,Phường Trung Văn,Ngách 127/29 Phùng Khoang
21.007522222222221,105.83521333333334,AGRIBANK,72,31,,,Quận Đống Đa,,Phố Hoàng Tích Trí
21.052338499999998,105.735843,TCB,581,49,,doan.ngo,Quận Bắc Từ Liêm,,Đường Cầu Diễn
20.96790857142857,105.78269,BIDV,17,14,,,Quận Hà Đông,Phường Nguyễn Trãi,Phố Bến Phà
21.039050526315794,105.79196789473684,SHB,J15,51,,phuong.nguyen44,Quận Cầu Giấy,,Phố Trần Đăng Ninh
20.974594,105.86925199999999,VTB,359,25,,,Quận Hoàng Mai,Phường Yên Sở,Ngõ 885 Tam Trinh
20.99232,105.84943,TPB,222,11,,vinh.nguyen12,Quận Hai Bà Trưng,Phường Trương Định,Đường Trương Định
20.969126666666668,105.78857733333334,TCB,191,38,,vinh.nguyen12,Quận Hà Đông,,Phố Nguyễn Sơn Hà
21.060855999999998,105.78088000000001,TCB,653,18,,,Quận Bắc Từ Liêm,Phường Cổ Nhuế 2,Ngõ 105 Cổ Nhuế
20.979212222222223,105.79881333333334,MBB,232,36,,,Huyện Thanh Trì,,Ngõ 138 Tân Triều
21.063184285714282,105.71720642857143,MBB,488,36,,thao.nguyen43,Huyện Hoài Đức,,Đường Tây Lai Xá
21.046443888888891,105.87106,TCB,357,47,Khách đã có loa rồi,ngoc.nguyen26,Quận Long Biên,,Đường Ngọc Lâm
20.96632375,105.7900175,VPB,984,85,Đây là nhà ăn của Học Viện Quân Y,dung.vu3,Quận Hà Đông,,Đường Phùng Hưng
20.994912,105.72971799999999,MBB,324,15,,,Huyện Hoài Đức,Xã An Khánh,Đường An Trường
21.013125,105.85825750000001,ABB,998,10,,,Quận Hai Bà Trưng,Phường Đống Mác,Phố Lò Đúc
21.020539642857141,105.76633607142855,VTB,623,86,,phat.nguyen7,Quận Nam Từ Liêm,,Đường Lê Đức Thọ
21.013388552631582,105.83195710526314,MBB,336,238,,,Quận Đống Đa,,Ngõ Xã Đàn 2
20.989405454545452,105.78729181818183,TCB,17,36,,cong.nguyen3,Quận Nam Từ Liêm,,Đường Trung Văn
21.037039375,105.78599,TCB,754,40,,,Quận Cầu Giấy,,Phố Phan Văn Trường
20.986567333333337,105.79398933333333,TCB,15,56,,,Quận Nam Từ Liêm,,Ngõ 30 Phùng Khoang
21.026945,105.82562250000001,TCB,135,15,,hai.le8,Quận Đống Đa,Phường Ô Chợ Dừa,Phố Vũ Thạnh
21.1721125,105.85647583333333,MBB,314,52,,,Huyện Đông Anh,,Đường Uy Nỗ
21.017976956521743,105.85156739130434,VTB,890,74,,,Quận Hai Bà Trưng,,Phố Lê Văn Hưu
21.050107586206895,105.78465172413793,MBB,63,144,,phat.nguyen7,Quận Bắc Từ Liêm,,Phố Tôn Quang Phiệt
20.979341818181819,105.79880181818181,TCB,316,26,,quyet.do,Huyện Thanh Trì,Xã Tân Triều,Ngõ 138 Tân Triều
20.998211730769231,105.82621096153846,BIDV,817,103,,,Quận Thanh Xuân,,Phố Nguyễn Ngọc Nại
21.033317272727274,105.7867090909091,TCB,431,29,,,Quận Cầu Giấy,Phường Dịch Vọng Hậu,Ngõ 44 Phố Trần Thái Tông
21.036628333333333,105.78403666666667,BIDV,121,50,Mc đã có loa của bank,bao.pham1,Quận Cầu Giấy,,Đường Xuân Thủy
21.020825199999997,105.77590760000001,TCB,979,91,,,Quận Nam Từ Liêm,,Ngõ 37 Thiên Hiền
21.061721428571428,105.72196142857142,VPB,XL8,39,,thao.nguyen43,Huyện Hoài Đức,,Đường Vạn Xuân
20.985281250000003,105.871215,TCB,15,19,,anh.nguyen91,Quận Hoàng Mai,Phường Vĩnh Hưng,Đường Lĩnh Nam
21.030675000000002,105.7779075,ABB,59,14,,,Quận Nam Từ Liêm,Phường Mỹ Đình 2,Ngõ 2 Nguyễn Hoàng
20.978676666666669,105.78538333333333,MBB,10,18,,,Quận Hà Đông,Phường Mộ Lao,Ngõ 102 Trần Phú
21.021472000000003,105.76191399999999,VTB,F11,13,,phat.nguyen7,Quận Nam Từ Liêm,Phường Mỹ Đình 1,Ngách 47 Ngõ 16 Phố Đỗ Xuân Hợp
21.007239130434783,105.93691826086958,MBB,4,76,,,Huyện Gia Lâm,,Đường Trâu Quỳ
21.006638292682926,105.80238341463415,TCB,355,85,,,Quận Cầu Giấy,,Phố Nguyễn Thị Thập
20.97261,105.81982833333333,MBB,705,20,,,Quận Hoàng Mai,Phường Đại Kim,Đường Nghiêm Xuân Yêm
20.966888333333333,105.87006666666666,MBB,506,11,,,Quận Hoàng Mai,Phường Yên Sở,Phố Yên Sở
21.060315714285714,105.78206642857143,TPB,231,35,,doan.ngo,Quận Bắc Từ Liêm,,Đường Cổ Nhuế
20.979830333333332,105.81572500000001,MBB,822,76,,anh.vu10,Quận Hoàng Mai,,Ngõ 120 Kim Giang
20.982024444444445,105.87964833333334,MBB,728,47,,truong.duong,Quận Hoàng Mai,,Đường Lĩnh Nam
21.12932375,105.78307625,BIDV,231,36,,,Huyện Đông Anh,,Ngõ 7 Đa Lộc
21.121375624999995,105.788515625,SACOM,558,64,,anh.nguyen93,Huyện Đông Anh,,Đường Anh Dũng
20.990060105633805,105.79477017605636,BIDV,807,770,,,Quận Nam Từ Liêm,,Ngõ 205 Đường Lương Thế Vinh
21.036474782608696,105.80274434782609,MBB,519,90,,nhi.vu1,Quận Cầu Giấy,,Ngõ 58 Đường Nguyễn Khánh Toàn
20.98376142857143,105.87461428571429,MBB,294,18,,anh.nguyen91,Quận Hoàng Mai,Phường Vĩnh Hưng,Phố Vĩnh Hoàng
21.073867777777778,105.70079111111112,TCB,186,30,,,Huyện Đan Phượng,,Vạn Xuân
21.00588375,105.81314,MBB,932,19,,,Quận Thanh Xuân,Phường Nhân Chính,Ngõ 53 Phố Quan Nhân
21.04762,105.80621,not defined or m2m,688,73,Khách dùng loa bank,dat.tran8,Quận Tây Hồ,,Đường Lạc Long Quân
21.019827959183676,105.80295836734695,MBB,830,116,,tien.truong,Quận Đống Đa,,Ngõ 850 Đường Láng
21.038056521739126,105.77143130434783,TCB,19,59,,nhi.vu1,Quận Cầu Giấy,,Đường Hồ Tùng Mậu
20.994716,105.77520799999999,VTB,860,16,,,Quận Nam Từ Liêm,Phường Trung Văn,Ngõ 28 Phố Đại Linh
21.01747588235294,105.84006882352942,TCB,564,26,,hung.nguyen27,Quận Đống Đa,Phường Khâm Thiên,Ngõ 1 Phố Khâm Thiên
20.979879387755105,105.79438530612246,TCB,335,128,,vinh.nguyen12,Quận Hà Đông,,Đường 19 Tháng 5
21.044420000000002,105.837345,TPB,914,13,,,Quận Ba Đình,Phường Trúc Bạch,Phố Trấn Vũ
21.008051176470588,105.82254764705883,BIDV,277,41,,minh.nguyen24,Quận Đống Đa,,Ngách 59 Ngõ 252 Tây Sơn
21.009115416666667,105.79514583333334,ACB,187,56,,,Quận Cầu Giấy,,Ngõ 2 Phố Nguyễn Chánh
21.0143125,105.81916375,BIDV,666,35,,,Quận Đống Đa,,Phố Hoàng Cầu
20.991875833333332,105.85892166666666,VPB,VA1,41,,anh.vu10,Quận Hoàng Mai,,Ngõ 254 Minh Khai
20.992114,105.72975199999999,TCB,18,13,,,Huyện Hoài Đức,Xã An Khánh,Đường An Trường
20.995281864406781,105.80663050847457,TCB,901,152,,,Quận Thanh Xuân,,Ngõ 336 Đường Nguyễn Trãi
20.968968205128203,105.76057641025641,BIDV,550,102,,vinh.nguyen12,Quận Hà Đông,,Phố Ngô Đình Mẫn
21.003358333333331,105.85117333333334,VTB,662,11,,vinh.nguyen12,Quận Hai Bà Trưng,Phường Thanh Nhàn,Phố Bạch Mai
21.033699019607841,105.83145960784314,MSB,352,128,,hai.le8,Quận Ba Đình,,Phố Ngọc Hà
20.894889444444441,105.76602611111112,TCB,197,46,,,Huyện Thanh Oai,,Đường Lạc Long Quân
21.00906,105.72139,TPB,868,12,,,Huyện Hoài Đức,Xã An Khánh,Thăng Long Victory
20.990540384615386,105.85364692307694,MBB,812,86,,truong.duong,Quận Hoàng Mai,,Đường Hoàng Mai
21.273545,105.750075,TCB,969,11,Khách có loa ngân hàng rồi,hiep.nguyen2,Huyện Sóc Sơn,Xã Minh Phú,Đường liên thôn xã Minh Trí
20.999492,105.80980600000001,BIDV,925,11,,,Quận Thanh Xuân,Phường Nhân Chính,Phố Quan Nhân
21.043613333333333,105.84639,TCB,683,16,,,Quận Ba Đình,Phường Nguyễn Trung Trực,Phố Nguyễn Khắc Nhu
21.03720625,105.7641325,VCB,486,31,,cong.nguyen3,Quận Nam Từ Liêm,,Ngõ 65 Phố Nguyễn Đổng Chi
20.986696666666667,105.79395666666667,TCB,11,10,,,Quận Nam Từ Liêm,Phường Trung Văn,Ngõ 30 Phùng Khoang
21.037765714285712,105.80797428571429,MBB,255,17,,,Quận Ba Đình,Phường Vĩnh Phúc,Ngõ 465 Đội Cấn
21.002257777777778,105.85085444444444,ACB,7BM,39,,,Quận Hai Bà Trưng,,Phố Bạch Mai
20.986688,105.868808,TCB,343,17,,anh.nguyen91,Quận Hoàng Mai,Phường Vĩnh Hưng,Đường Lĩnh Nam
21.039177142857138,105.84812339285715,MBB,152,136,,thuong.nguyen9,Quận Hoàn Kiếm,,Phố Hàng Giấy
20.988915,105.84817916666667,TCB,139,33,,anh.vu10,Quận Hoàng Mai,,Ngõ 281 Đường Trương Định
20.980669999999996,105.895646,TCB,308,11,,anh.nguyen91,Quận Hoàng Mai,Phường Lĩnh Nam,Ngõ 49 Phố Thúy Lĩnh
21.033649230769235,105.73877692307693,TCB,533,45,,,Quận Nam Từ Liêm,,Ngõ 273 Xuân Phương
21.033783684210519,105.85201578947368,VCB,972,37,,thuong.nguyen9,Quận Hoàn Kiếm,,Phố Đinh Liệt
21.070225454545458,105.78664363636364,MBB,294,32,Khách không có nhu cầu dùng,tan.nguyen15,Quận Bắc Từ Liêm,,Ngõ 401 Đường Xuân Đỉnh
20.992937692307695,105.83686153846153,VTB,343,51,,hai.le8,Quận Thanh Xuân,,Cầu Vượt Sông Lừ
20.8078975,105.77656999999999,TCB,633,11,,,Huyện Thanh Oai,Xã Dân Hòa,Quốc lộ 21B
20.980106111111112,105.74398555555554,TCB,292,103,,vinh.nguyen12,Quận Hà Đông,,Đường Lê Trọng Tấn
20.99014375,105.80398749999998,BIDV,769,68,,cong.lan,Quận Thanh Xuân,,Đường Nguyễn Xiển
20.996257142857139,105.75605714285713,MBB,258,30,,cong.nguyen3,Quận Nam Từ Liêm,,Đường Quang Tiến
21.054358235294117,105.90344764705883,MBB,36,49,Tạp hoá Hùng Châm  KCNC,huy.le16,Quận Long Biên,,Phố Việt Hưng
21.049833333333332,105.868945,BIDV,42,25,Không có nhu cầu,phuong.pham10,Quận Long Biên,Phường Ngọc Thụy,Phố Nguyễn Thế Rục
21.010180769230764,105.9367676923077,TCB,151,51,,ngoc.nguyen26,Huyện Gia Lâm,,Ngách 367/21 phố Ngô Xuân Quảng
21.071572222222223,105.77333277777777,not defined or m2m,971,73,,phat.nguyen7,Quận Bắc Từ Liêm,,Phố Viên
20.996080526315787,105.94472052631579,TCB,638,47,,ngoc.nguyen26,Huyện Gia Lâm,,Hải Đăng 1
20.995183571428569,105.874085,OCB,216,36,,,Quận Hai Bà Trưng,,Phố Dương Văn Bé
20.989733333333337,105.84739750000001,VCB,45,22,,,Quận Hoàng Mai,Phường Tương Mai,Đường Trương Định
21.12643416666667,105.77658583333331,BIDV,921,50,Không tìm thấy,anh.nguyen93,Huyện Đông Anh,,Cổng Si
21.007870476190476,105.81412761904762,MBB,684,58,,cong.lan,Quận Thanh Xuân,,Ngõ 1 Phố Quan Nhân
21.014773333333334,105.809845,TCB,75,11,,,Quận Đống Đa,Phường Láng Hạ,Phố Vũ Ngọc Phan
20.952168055555557,105.75713361111112,BIDV,942,119,,,Quận Hà Đông,,Phố Ba La
20.964008181818183,105.79523727272728,VCB,759,27,,quyet.do,Huyện Thanh Trì,Xã Tân Triều,Đường Phùng Hưng
21.023566363636366,105.79341545454545,MBB,636,34,,,Quận Cầu Giấy,,Phố Yên Hòa
20.964594375000004,105.82081562500001,TCB,475,44,,,Quận Hoàng Mai,,Phố Bùi Quốc Khái
21.001002,105.85895599999999,MBB,690,14,,,Quận Hai Bà Trưng,Phường Quỳnh Mai,Phố Quỳnh Mai
21.037906363636367,105.77747636363635,TCB,16,28,,dat.tran8,Quận Cầu Giấy,Phường Mai Dịch,Ngõ 66 Đường Hồ Tùng Mậu
21.011246666666668,105.93561259259259,BIDV,798,83,,,Huyện Gia Lâm,,Phố Thành Trung
21.04548,105.76865857142859,BIDV,785,20,,,Quận Nam Từ Liêm,Phường Cầu Diễn,Ngõ 332 Đường Hoàng Công Chất
20.972481111111112,105.74552777777778,MBB,352,60,,dung.vu3,Quận Hà Đông,,Phố Ỷ La
20.954904444444445,105.84123333333332,TPB,225,29,,truong.duong,Huyện Thanh Trì,Thị trấn Văn Điển,Đường Tựu Liệt
20.978454285714285,105.79691178571429,TCB,970,62,,quyet.do,Huyện Thanh Trì,,Đường Chiến Thắng
21.004565272727273,105.8324521818182,MBB,80,133,,,Quận Đống Đa,,Ngõ 43 Phố Đông Tác
20.974011176470587,105.84136647058824,MBB,6,37,,dung.vu2,Quận Hoàng Mai,,Phố Thịnh Liệt
21.006758235294118,105.80253176470586,VPB,231,40,,,Quận Cầu Giấy,,Phố Nguyễn Thị Thập
21.03454375,105.82678437500002,MBB,760,40,,hai.le8,Quận Ba Đình,,Ngõ 140 Đội Cấn
21.041242285714286,105.78264800000001,BIDV,101,75,,,Quận Cầu Giấy,,Ngõ 215 Phố Trần Quốc Hoàn
21.055181111111114,105.74008666666667,SACOM,542,29,,phat.nguyen7,Quận Bắc Từ Liêm,Phường Minh Khai,Phố Nguyên Xá
20.96566,105.7824025,TCB,666,14,,vinh.nguyen12,Quận Hà Đông,Phường Hà Cầu,Phố Hà Trì
21.003023,105.862678,BIDV,40,61,,hung.nguyen27,Quận Hai Bà Trưng,,Ngõ 325 Phố Kim Ngưu
21.032536,105.84891999999999,BIDV,960,11,,,Quận Hoàn Kiếm,Phường Hàng Gai,Phố Hàng Quạt
21.025030526315785,105.89536342105262,VTB,886,107,,ngoc.nguyen26,Quận Long Biên,,Cầu Vĩnh Tuy
20.9877075,105.76177166666666,VPB,883,30,,phat.nguyen7,Quận Nam Từ Liêm,,Phố Lê Giản
20.994293333333331,105.80317333333333,VTB,503,11,,,Quận Thanh Xuân,Phường Thanh Xuân Trung,Ngõ 12 Khuất Duy Tiến
21.035623243243244,105.77614283783784,BIDV,464,207,,nhi.vu1,Quận Cầu Giấy,,Ngõ 75 Đường Hồ Tùng Mậu
21.040441818181819,105.76533090909092,OJB,888,20,,,Quận Nam Từ Liêm,Phường Cầu Diễn,Đường Hồ Tùng Mậu
21.040822037037035,105.78395296296296,TCB,297,135,,,Quận Cầu Giấy,,Ngõ 199 Trần Quốc Hoàn
20.99732,105.823966,TCB,471,14,,hai.le8,Quận Thanh Xuân,Phường Khương Trung,Phố Hoàng Văn Thái
21.039814615384614,105.75940307692308,MBB,300,24,,,Quận Bắc Từ Liêm,Phường Phúc Diễn,Đường Phúc Diễn
21.04775,105.74766,VPB,877,16,,,Quận Bắc Từ Liêm,Phường Phúc Diễn,Ngõ 74
20.96542,105.87418142857143,BIDV,654,17,,,Quận Hoàng Mai,Phường Yên Sở,Phố Yên Duyên
20.99101,105.86171499999999,TCB,575,33,,,Quận Hoàng Mai,,Phố Mai Động
21.00706692307692,105.82101307692309,TCB,112,34,Không gặp chủ,hung.nguyen27,Quận Đống Đa,,Ngõ 35 Thái Thịnh
20.96825625,105.77856249999999,TCB,857,35,,,Quận Hà Đông,,Phố Tản Đà
21.080459411764707,105.77802588235295,TCB,885,58,Không có nhu cầu,doan.ngo,Quận Bắc Từ Liêm,,Đường Đức Thắng
21.051424060606063,105.73914842424242,VPB,553,452,,,Quận Bắc Từ Liêm,,Ngõ 134 Đường Cầu Diễn
21.028214444444444,105.94080888888888,SACOM,835,30,,,Huyện Gia Lâm,,Đường Cổ Bi
21.03072090909091,105.77770909090908,MBB,261,30,,,Quận Nam Từ Liêm,,Ngõ 2 Nguyễn Hoàng
21.046662142857141,105.87330142857142,TCB,529,43,,ngoc.nguyen26,Quận Long Biên,,Ngách 298/20 Đường Ngọc Lâm
21.019233333333332,105.80518000000001,BIDV,6,14,,,Quận Đống Đa,Phường Láng Thượng,Phố Pháo Đài Láng
21.010613333333335,105.76832,TCB,311,11,,bao.pham1,Quận Nam Từ Liêm,Phường Phú Đô,Ngõ 34 Phố Phú Đô
21.05566,105.78534125,BIDV,272,22,,tan.nguyen15,Quận Bắc Từ Liêm,Phường Cổ Nhuế 1,Phố Trần Cung
21.129158333333333,105.78210250000001,MBB,932,66,,,Huyện Đông Anh,,Đường Xóm Thọ
20.995551600000002,105.7560672,TCB,967,68,,phat.nguyen7,Quận Nam Từ Liêm,,Đường Đại Mỗ
21.052205,105.80920642857143,BIDV,549,34,,dat.tran8,Quận Tây Hồ,,Phố Võng Thị
21.013332777777777,105.80079629629628,VPB,768,121,,phuong.nguyen44,Quận Cầu Giấy,,Phố Trung Kính
20.986924615384616,105.81337692307692,VPB,C18,69,,hai.le8,Quận Thanh Xuân,,Đường Khương Đình
21.02299727272727,105.81181181818182,TCB,59,36,,,Quận Đống Đa,,Phố Nguyên Hồng
21.040916551724141,105.78398379310342,MBB,9,111,,,Quận Cầu Giấy,,Ngõ 199 Trần Quốc Hoàn
21.111298888888886,105.87708666666667,MBB,538,46,,,Huyện Đông Anh,,Ngõ 24 Đường Cổ Loa
21.004313678160923,105.82980689655173,MBB,834,220,,,Quận Đống Đa,,Phố Tam Khương
21.014923333333332,105.92585444444445,MBB,999,17,,hung.nguyen27,Huyện Gia Lâm,Thị trấn Trâu Quỳ,Cầu An Lạc
21.04488,105.7673175,TCB,210,21,,,Quận Nam Từ Liêm,Phường Cầu Diễn,Đường Hoàng Công Chất
21.03406,105.83251,BIDV,918,15,,,Quận Ba Đình,Phường Điện Biên,Ngõ 77 Lê Hồng Phong
20.958908139534884,105.74782930232556,TCB,267,91,,dung.vu3,Quận Hà Đông,,Đường Quyết Thắng
21.010584545454545,105.8309490909091,TCB,144,38,,,Quận Đống Đa,,Phố Đặng Văn Ngữ
21.037927894736839,105.80254263157896,VPB,158,37,Khong lap,phuong.nguyen44,Quận Cầu Giấy,,Ngõ 92 Nguyễn Khánh Toàn
20.991385555555553,105.84967055555556,MBB,0,49,,hung.nguyen27,Quận Hai Bà Trưng,,Ngõ 129 Đường Trương Định
21.061204285714286,105.831855,TCB,824,35,,dat.tran8,Quận Tây Hồ,,Phố Từ Hoa
21.001335441176472,105.81834558823532,TCB,19,146,,,Quận Thanh Xuân,,Phố Khương Trung
21.047446153846153,105.76334923076924,TPB,777,34,,doan.ngo,Quận Bắc Từ Liêm,,Đường Phú Diễn
21.040836249999998,105.77644,SeABank,261,18,,dat.tran8,Quận Cầu Giấy,Phường Mai Dịch,Ngõ 169 Phố Doãn Kế Thiện
21.011255,105.85654,VPB,798,13,,,Quận Hai Bà Trưng,Phường Đồng Nhân,Phố Hương Viên
21.018601428571429,105.81082357142856,NAB,202,30,,,Quận Đống Đa,,Phố Huỳnh Thúc Kháng
21.030017346938777,105.7995724489796,VPB,W9J,119,Ko lắp,phuong.nguyen44,Quận Cầu Giấy,,Ngõ 79 Đường Cầu Giấy
20.97909,105.84215,TPB,666,25,,truong.duong,Quận Hoàng Mai,Phường Giáp Bát,Ngõ 897 Giải Phóng
21.023249230769231,105.79532230769232,MBB,582,66,,,Quận Cầu Giấy,,Phố Yên Hòa
21.090051666666668,105.90500166666666,TCB,999,21,,,Huyện Gia Lâm,Xã Yên Thường,Đường Yên Thường
21.0233015,105.80717750000001,MBB,294,70,,,Quận Đống Đa,,Phố Chùa Láng
20.983175,105.82097833333333,TCB,531,32,siêu thị tiện lợi d&h 357 bùi xương trạch  dùng loa tech,dung.vu2,Quận Hoàng Mai,,Phố Bùi Xương Trạch
20.983258658536588,105.80145475609757,MBB,687,240,,,Huyện Thanh Trì,,Ngõ 111 Triều Khúc
21.01233625,105.828518125,OCB,72,46,,minh.nguyen24,Quận Đống Đa,,Ngõ 119 Hồ Đắc Di
20.998945666666668,105.80286966666667,MBB,886,67,,,Quận Thanh Xuân,,Đường Nguyễn Tuân
21.087461111111107,105.78698444444444,MBB,718,101,,phat.nguyen7,Quận Bắc Từ Liêm,,Phố Nhật Tảo
20.998737058823526,105.84746352941177,VTB,122,150,,,Quận Hai Bà Trưng,,Ngõ Tự Do
21.05872125,105.80869874999999,MBB,798,29,,,Quận Cầu Giấy,Phường Nghĩa Đô,Đường Lạc Long Quân
20.980128235294117,105.74400264705882,MBB,999,103,,vinh.nguyen12,Quận Hà Đông,,Đường Lê Trọng Tấn
20.873245,105.86060555555555,TCB,255,54,Mc đã.có loa,anh.nguyen85,Huyện Thường Tín,,Phố Nguyễn Phi Khanh
20.964921818181818,105.82672727272727,MBB,546,34,,,Quận Hoàng Mai,,Phố Nguyễn Phan Chánh
20.999542380952381,105.49251190476191,BIDV,242,66,,tuan.tran8,Huyện Thạch Thất,,Tuyến số 04
21.052062,105.780779,MBB,44,22,,tan.nguyen15,Quận Bắc Từ Liêm,Phường Cổ Nhuế 1,Đường Số 4
20.982936521739127,105.79825913043477,MBB,815,43,,,Huyện Thanh Trì,,Ngõ 64 Triều Khúc
20.993024347826086,105.82936695652174,TCB,147,85,,anh.vu10,Quận Hoàng Mai,,Ngõ 192 Lê Trọng Tấn
21.071534285714289,105.7724207142857,BIDV,136,100,,phat.nguyen7,Quận Bắc Từ Liêm,,Phố Viên
20.969051832460728,105.74684371727749,MBB,68,476,,vinh.nguyen12,Quận Hà Đông,,Ngõ 230 Ỷ La
20.996720000000003,105.8028875,MBB,318,15,,,Quận Thanh Xuân,Phường Thanh Xuân Trung,Phố Nguyễn Huy Tưởng
21.032165749999997,105.793175375,VTB,662,231,,phuong.nguyen44,Quận Cầu Giấy,,Phố Dịch Vọng
20.98343,105.83575333333333,MBB,990,10,,dung.vu2,Quận Hoàng Mai,Phường Định Công,Ngõ 176 Định Công
21.044732500000002,105.7511225,MBB,922,32,,doan.ngo,Quận Bắc Từ Liêm,,Ngách 91/6 Đường Cầu Diễn
20.9913031,105.8455084,TCB,676,10,,,Quận Hoàng Mai,Phường Tương Mai,Ngõ 104 Nguyễn An Ninh
21.162809999999997,105.47211727272727,MBB,634,56,,,Thị xã Sơn Tây,,Quốc lộ 32
20.985702,105.828086,VCB,1,33,,truong.duong,Quận Hoàng Mai,,Đường Vành đai 2.5
20.9444475,105.7627625,VPB,597,21,,,Quận Hà Đông,Phường Phú Lương,Phố Văn Nội
21.0241275,105.7935225,AGRIBANK,381,20,,,Quận Cầu Giấy,Phường Yên Hoà,Phố Hoa Bằng
21.020587499999998,105.86189125,TCB,846,52,,thuong.nguyen9,Quận Hoàn Kiếm,,Đường Trần Khánh Dư
21.04090980582524,105.78402427184466,TCB,294,341,,,Quận Cầu Giấy,,Ngõ 199 Trần Quốc Hoàn
21.036072857142855,105.80091530612241,MBB,158,116,,,Quận Cầu Giấy,,Ngõ 165 Dương Quảng Hàm
21.086356666666667,105.80714833333334,TCB,941,12,,,Quận Tây Hồ,Phường Phú Thượng,Phố Phú Thượng
21.06781,105.77892,TCB,338,16,,,Quận Bắc Từ Liêm,Phường Cổ Nhuế 2,Đường Cổ Nhuế
21.043896,105.73746066666668,MBB,588,163,,,Quận Nam Từ Liêm,,Xuân Phương
20.9885,105.803628,TCB,36,23,,hai.le8,Quận Thanh Xuân,Phường Hạ Đình,Ngõ 116 Nguyễn Xiển
21.069363529411767,105.78614647058824,TCB,633,27,,,Quận Bắc Từ Liêm,Phường Xuân Đỉnh,Ngách 1/2 Đỗ Nhuận
21.002992857142861,105.81245714285713,TCB,787,78,,hai.le8,Quận Thanh Xuân,,Ngõ 40 Phố Cự Lộc
20.981264,105.798219,MBB,686,19,,quyet.do,Huyện Thanh Trì,Xã Tân Triều,Ngõ 136 Triều Khúc
21.015102068965511,105.83732896551723,MBB,11,60,,,Quận Đống Đa,,Ngõ Chợ Khâm Thiên
20.98001,105.80445333333333,TCB,868,13,,quyet.do,Huyện Thanh Trì,Xã Tân Triều,Đường Tân Triều
21.0513975,105.81162499999999,TPB,471,12,,,Quận Tây Hồ,Phường Bưởi,Ngõ 57 Võng Thị
20.916869090909088,105.71447545454545,TCB,682,27,,,Huyện Chương Mỹ,Thị trấn Chúc Sơn,Đường Ngọc Sơn
20.961034090909092,105.84293318181818,TCB,9,46,,anh.vu10,Quận Hoàng Mai,,Ngõ 15 Đường Ngọc Hồi
21.013189999999998,105.76578,TCB,97,15,,bao.pham1,Quận Nam Từ Liêm,Phường Phú Đô,Ngõ 8 Lê Quang Đạo
20.9822906122449,105.87856469387755,VCB,5,208,,truong.duong,Quận Hoàng Mai,,Đường Lĩnh Nam
21.0606725,105.78175250000001,VCB,6,19,,,Quận Bắc Từ Liêm,Phường Cổ Nhuế 2,Đường Cổ Nhuế
21.051407,105.73928799999999,VCB,296,38,,,Quận Bắc Từ Liêm,,Ngõ 134 Đường Cầu Diễn
21.020933703703705,105.82188358024692,VCCB,315,246,,,Quận Đống Đa,,Phố Nguyễn Phúc Lai
20.985583098591547,105.88840211267606,MBB,802,211,,anh.nguyen91,Quận Hoàng Mai,,Phố Nam Dư
21.037509999999997,105.82573714285715,MBB,330,37,,hai.le8,Quận Ba Đình,,Ngõ 158 Ngọc Hà
21.202157500000002,105.77065999999999,MBB,944,26,Khách đã có loa,hiep.nguyen2,Huyện Mê Linh,Thị trấn Quang Minh,Ngách 225/23 Đường Quang Minh
20.9937975,105.9414475,VCB,364,10,,,Huyện Gia Lâm,Xã Đa Tốn,Đường Hải Đăng
20.993145714285713,105.81715714285716,VCB,724,33,,,Quận Thanh Xuân,,Phố Khương Trung
21.043444,105.780796,VTB,A01,11,Không có nhu cầu sử dụng loa bán ít k muốn dùng,dat.tran8,Quận Cầu Giấy,Phường Mai Dịch,Đường Phạm Văn Đồng
21.034728333333334,105.78350999999998,TCB,634,67,Khách hàng đã có loa bank,bao.pham1,Quận Cầu Giấy,,Ngõ 181 Đường Xuân Thủy
21.036213043478259,105.80125217391304,MBB,638,49,,phuong.nguyen44,Quận Cầu Giấy,,Phố Dương Quảng Hàm
20.999182857142859,105.87838317460317,VIB,740,207,KH có loa rồi,anh.nguyen91,Quận Hoàng Mai,,Ngõ 407 Phố Vĩnh Hưng
21.017171764705882,105.80503,not defined or m2m,729,40,,hung.nguyen27,Quận Đống Đa,,Ngõ 157 Pháo Đài Láng
21.000487222222219,105.85931111111111,BIDV,159,37,,,Quận Hai Bà Trưng,,Phố 8 Tháng 3
20.999776206896552,105.79202,TCB,994,75,,phat.nguyen7,Quận Nam Từ Liêm,,Đường Hồ Mễ Trì
21.054979090909093,105.77702,MBB,910,37,,,Quận Bắc Từ Liêm,,Đường Số 23
20.965655,105.76444625,MBB,634,33,,,Quận Hà Đông,,Ngõ 5 Phan Đình Giót
21.045436428571428,105.72156428571429,TCB,673,37,,thao.nguyen43,Huyện Hoài Đức,,Đường Di Trạch
21.008892000000003,105.72215500000001,MBB,697,54,,thao.nguyen43,Huyện Hoài Đức,,An Thọ 1
21.029006200000005,105.84918760000001,TCB,788,112,,thuong.nguyen9,Quận Hoàn Kiếm,,Phố Ấu Triệu
20.997567272727274,105.85083727272728,AGRIBANK,870,46,,hung.nguyen27,Quận Hai Bà Trưng,,Ngõ 459 Phố Bạch Mai
21.018656666666665,105.73838666666666,MBB,339,14,,,Quận Nam Từ Liêm,Phường Tây Mỗ,Ngõ 40 Phố Do Nha
21.034840000000003,105.77289583333334,BIDV,443,38,,phuong.nguyen44,Quận Cầu Giấy,,Phố Dương Khuê
21.032130000000002,105.792636,BIDV,295,96,ko lắp,nhi.vu1,Quận Cầu Giấy,,Ngõ 72 Dịch Vọng
20.966797241379307,105.79535827586207,TPB,g84,104,,,Huyện Thanh Trì,,Ngõ 21 Đường Yên Xá
21.14531777777778,105.81479333333334,BIDV,685,21,,,Huyện Đông Anh,Xã Vân Nội,Đường Vân Trì
21.012634285714288,105.82846285714287,TCB,21,36,,hung.nguyen27,Quận Đống Đa,,Ngõ 14 Hồ Đắc Di
20.995660000000004,105.84537818181818,VIB,19,44,,minh.nguyen24,Quận Hai Bà Trưng,,Phố Trần Đại Nghĩa
21.075775999999998,105.772126,VCB,362,40,,,Quận Bắc Từ Liêm,,Sông Nhuệ
20.981103333333333,105.77142666666667,MBB,161,16,,,Quận Hà Đông,Phường Vạn Phúc,Đường Vạn Phúc
21.085033333333335,105.61618083333333,VTB,984,36,,,Huyện Phúc Thọ,,Quốc lộ 32
20.998310526315791,105.84638210526316,TCB,589,62,,hung.nguyen27,Quận Hai Bà Trưng,,Ngõ 213 Trần Đại Nghĩa
21.02110125,105.77866125,MBB,596,27,,phat.nguyen7,Quận Nam Từ Liêm,Phường Mỹ Đình 1,Ngõ 1 Đình Thôn
21.07309,105.81593,MBB,712,15,,,Quận Tây Hồ,Phường Nhật Tân,Phố Nhật Chiêu
21.007138125,105.8211375,TCB,939,38,đã có loa,hung.nguyen27,Quận Đống Đa,,Ngõ 35 Thái Thịnh
21.031765,105.812565,SHINHAN,565,26,,,Quận Ba Đình,Phường Ngọc Khánh,Phố Đào Tấn
21.002532592592594,105.80568888888888,VPB,427,68,,,Quận Thanh Xuân,,Phố Ngụy Như Kon Tum
21.011290285714288,105.81777742857142,BIDV,318,94,,,Quận Đống Đa,,Phố Nguyễn Văn Tuyết
20.987841666666665,105.86229333333333,TCB,13,27,,truong.duong,Quận Hoàng Mai,Phường Hoàng Văn Thụ,Ngõ 299 Đường Hoàng Mai
21.035184615384612,105.77633846153846,VCB,635,44,,nhi.vu1,Quận Cầu Giấy,,Ngõ 75 Đường Hồ Tùng Mậu
21.012139259259261,105.82108777777775,ACB,568,84,,,Quận Đống Đa,,Phố Thái Hà
21.024752272727273,105.61829863636365,BIDV,706,53,,tuan.tran8,Huyện Thạch Thất,,Trường Học
21.049867647058822,105.78233352941177,TPB,101,36,Đã có loa của ngân hàng,tan.nguyen15,Quận Bắc Từ Liêm,,Ngõ 643 Phạm Văn Đồng
21.035221052631577,105.80024526315789,BIDV,879,41,,phuong.nguyen44,Quận Cầu Giấy,,Phố Dương Quảng Hàm
21.010225000000002,105.778645,MBB,704,13,,,Quận Nam Từ Liêm,Phường Mễ Trì,Ngõ 32 Phố Đồng Me
21.0285675,105.77239250000001,TCB,668,12,,,Quận Nam Từ Liêm,Phường Mỹ Đình 2,Ngõ 180 Đường Phú Mỹ
21.051087142857138,105.77211742857142,VPB,997,108,,,Quận Bắc Từ Liêm,,Ngõ 158 Phan Bá Vành
21.127347142857143,105.77684142857143,TCB,2,14,,,Huyện Đông Anh,Xã Kim Chung,Đường Đa Lộc
21.053036521739131,105.73100869565218,TCB,893,56,,,Quận Nam Từ Liêm,,Phố Tu Hoàng
21.006644137931037,105.80252965517242,TCB,466,81,,,Quận Thanh Xuân,,Phố Nguyễn Thị Thập
21.07934,105.78585555555556,TCB,956,37,,,Quận Bắc Từ Liêm,,Đường Tân Xuân
20.987767368421054,105.79707947368422,TCB,756,63,,,Quận Nam Từ Liêm,,Ngõ 2 Tập thể Học viện Chính trị Quân sự
21.013461666666668,105.85584166666668,BIDV,686,25,,,Quận Hai Bà Trưng,Phường Đồng Nhân,Phố Đỗ Ngọc Du
21.034417142857141,105.78368,TCB,19,36,,phuong.nguyen44,Quận Cầu Giấy,,Phố Trần Quốc Vượng
21.0341914893617,105.78505042553192,MBB,392,247,,nhi.vu1,Quận Cầu Giấy,,Ngõ 63 Phố Trần Quốc Vượng
20.893335454545454,105.8562909090909,BIDV,31K,44,Cửa hàng có loa rôi,anh.nguyen85,Huyện Thường Tín,,Quốc lộ 1
20.980328421052629,105.81799210526316,MBB,272,48,,anh.vu10,Quận Hoàng Mai,,Ngõ 168 Đường Kim Giang
20.998844444444444,105.81152666666667,TCB,864,68,,hai.le8,Quận Thanh Xuân,,Phố Chính Kinh
20.976071666666666,105.776655,MBB,934,25,,,Quận Hà Đông,Phường Vạn Phúc,Đường Vạn Phúc
21.063156,105.909308,VTB,824,14,,ngoc.nguyen26,Quận Long Biên,Phường Giang Biên,Phố Thép Mới
21.032353333333333,105.79785166666667,TCB,974,31,,,Quận Cầu Giấy,,Ngõ 165 Đường Cầu Giấy
21.037289333333334,105.78536133333333,MBB,860,40,Mc đã có loa của MBB,bao.pham1,Quận Cầu Giấy,,Ngõ 130 Đường Xuân Thủy
20.995683043478259,105.81413978260871,TCB,482,116,,hai.le8,Quận Thanh Xuân,,Đường Khương Đình
21.035238260869566,105.80025173913043,TCB,128,53,,phuong.nguyen44,Quận Cầu Giấy,,Phố Dương Quảng Hàm
20.990512500000005,105.72466625000001,MBB,986,13,,,Huyện Hoài Đức,Xã An Khánh,Đường An Khánh
20.967027142857145,105.79516142857142,TCB,312,17,,quyet.do,Huyện Thanh Trì,Xã Tân Triều,Ngõ 21 Đường Yên Xá
21.033444057971014,105.76608652173911,TCB,690,438,,phat.nguyen7,Quận Nam Từ Liêm,,Phố Nguyễn Cơ Thạch
20.995869696969695,105.87404696969696,TCB,532,70,,,Quận Hai Bà Trưng,,Phố Dương Văn Bé
21.012421666666665,105.80323666666668,MBB,770,23,,,Quận Cầu Giấy,Phường Trung Hoà,Ngõ 10 Phố Nguyễn Thị Định
21.016820000000003,105.8492642857143,VPB,750,18,,,Quận Hai Bà Trưng,Phường Nguyễn Du,Phố Bà Triệu
21.00503227272727,105.81576136363637,MBB,682,49,,hai.le8,Quận Thanh Xuân,,Ngõ 72 Nguyễn Trãi
21.068255454545454,105.80442818181818,MBB,767,42,,,Quận Bắc Từ Liêm,,Ngõ 38 Xuân La
20.966777659574472,105.79530212765958,TCB,940,97,,quyet.do,Huyện Thanh Trì,,Đường Yên Xá
21.023385238095237,105.82563428571429,SACOM,897,76,,,Quận Đống Đa,,Ngõ 45 Phố Hào Nam
21.008443571428568,105.938675,TCB,339,70,,,Huyện Gia Lâm,,Ngõ 367 phố Ngô Xuân Quảng
20.982354736842105,105.78801315789472,BIDV,200,52,,,Quận Hà Đông,,Phố Ao Sen
20.98033,105.82709666666666,VTB,389,24,,dung.vu2,Quận Hoàng Mai,Phường Định Công,Ngõ 99 Định Công Hạ
21.00551,105.81140315789473,TCB,458,44,,cong.lan,Quận Thanh Xuân,,Ngõ 134 Phố Quan Nhân
20.999754545454547,105.74004181818182,MBB,114,195,,phat.nguyen7,Quận Nam Từ Liêm,,Đường Đại Việt
21.068270476190477,105.77876714285715,VPB,508,60,,doan.ngo,Quận Bắc Từ Liêm,,Đường Cổ Nhuế
21.069108888888884,105.77239518518516,TCB,493,76,k mua,phat.nguyen7,Quận Bắc Từ Liêm,,Phố Viên
21.009468181818185,105.82727727272727,VCB,989,122,,hung.nguyen27,Quận Đống Đa,,Ngõ 167 Tây Sơn
21.016963333333333,105.81046666666667,TPB,888,12,,,Quận Đống Đa,Phường Láng Hạ,Ngõ 28 Nguyên Hồng
21.022380999999996,105.82333866666669,MBB,129,74,,minh.nguyen24,Quận Đống Đa,,Đường La Thành
20.995393846153846,105.84391923076922,MBB,352,17,,,Quận Hai Bà Trưng,Phường Đồng Tâm,Ngõ 229 Phố Vọng
21.0453225,105.86896,TCB,228,30,Khách đã có loa rồi,ngoc.nguyen26,Quận Long Biên,,Đường Ngọc Lâm
21.032049999999998,105.77245142857142,TCB,268,25,,,Quận Nam Từ Liêm,Phường Mỹ Đình 2,Ngõ 20 Mỹ Đình
21.0353525,105.7857075,VTB,204,12,,,Quận Cầu Giấy,Phường Dịch Vọng Hậu,Phố Trần Quốc Vượng
20.981965588235294,105.80413235294118,VTB,479,71,,,Huyện Thanh Trì,,Ngõ 2 Tân Triều
21.005248666666667,105.71961933333334,BIDV,33,44,,thao.nguyen43,Huyện Hoài Đức,,Đường Thanh Niên
21.008303636363635,105.78192090909091,TCB,689,71,,cong.nguyen3,Quận Nam Từ Liêm,,Phố Đỗ Đức Dục
20.960485434782612,105.76122239130434,SACOM,849,150,,vinh.nguyen12,Quận Hà Đông,,Ngõ 12 Đường Quang Trung
21.00615,105.8654,VTB,686,10,,,Quận Hai Bà Trưng,Phường Thanh Lương,Ngõ 153 Đê Trần Khát Chân
21.003913333333333,105.83869958333332,MBB,688,59,,,Quận Đống Đa,,Phố Phương Mai
20.966259285714287,105.49274285714287,not defined or m2m,651,43,,,Huyện Thạch Thất,,Đường tỉnh 446
21.077992000000002,105.946536,MBB,8m0,12,,,Huyện Gia Lâm,Xã Ninh Hiệp,Ngách 505/8 Đường Ninh Hiệp
21.003688888888888,105.84681055555555,TCB,421,39,,hung.nguyen27,Quận Hai Bà Trưng,,Ngõ 40 Phố Tạ Quang Bửu
21.03561,105.800655,VIB,554,11,,,Quận Cầu Giấy,Phường Quan Hoa,Phố Dương Quảng Hàm
21.107348749999996,105.84799125,TCB,954,16,,cong.nguyen3,Huyện Đông Anh,Xã Xuân Canh,Đường Xuân Canh
20.979339166666669,105.80106833333333,MBB,220,29,,quyet.do,Huyện Thanh Trì,Xã Tân Triều,Ngõ 3 Phố Triều Khúc
20.988076415094334,105.84040735849058,BIDV,118,176,,hai.le8,Quận Thanh Xuân,,Đường Giải Phóng
21.07639956521739,105.7281208695652,TCB,465,72,,,Quận Bắc Từ Liêm,,Ngõ 59 59A Tây Tựu
21.110657142857139,105.78956714285714,TCB,782,32,Không tìm thấy,anh.nguyen93,Huyện Đông Anh,,Đường 23B
21.0086889,105.8208784,VPB,875,264,,,Quận Đống Đa,,Phố Nguyễn Văn Tuyết
21.018974117647062,105.83748411764707,TCB,53,39,,,Quận Đống Đa,,Ngõ Cống Trắng
21.015043333333335,105.740315,MBB,964,25,,,Quận Nam Từ Liêm,Phường Tây Mỗ,Ngõ 6 Miêu Nha
20.961183636363639,105.81341454545455,VCB,244,32,,quyet.do,Huyện Thanh Trì,,Đường Kim Giang
21.010716206896554,105.8183224137931,TCB,967,53,,minh.nguyen24,Quận Đống Đa,,Ngõ 112 Thái Thịnh
21.046573846153848,105.69560461538461,BIDV,362,62,,thao.nguyen43,Huyện Hoài Đức,,Đường Sơn Đồng
21.019897826086957,105.8029747826087,TCB,891,71,,tien.truong,Quận Đống Đa,,Ngõ 850 Đường Láng
20.9810921875,105.819828125,MBB,214,98,,,Quận Hoàng Mai,,Phố Định Công Thượng
21.008431764705882,105.78218764705883,MBB,85,48,,cong.nguyen3,Quận Nam Từ Liêm,,Phố Đỗ Đức Dục
21.044681818181822,105.75089818181819,SACOM,432,32,,doan.ngo,Quận Bắc Từ Liêm,,Ngách 91/6 Đường Cầu Diễn
21.008269000000002,105.8384665,TPB,799,94,,,Quận Đống Đa,,Phố Đào Duy Anh
20.627400909090913,105.78027636363636,MBB,789,18,Khách hàng không có nhu cầu,thao.nguyen43,Huyện Mỹ Đức,Xã Đốc Tín,Đường tỉnh 419
21.020733571428572,105.80348285714285,MBB,868,47,,hung.nguyen27,Quận Đống Đa,,Ngõ 157 Phố Chùa Láng
21.006796666666666,105.82296761904762,VCCB,474,60,,,Quận Đống Đa,,Phố Tây Sơn
21.040373777777781,105.78056377777779,TCB,13,104,,nhi.vu1,Quận Cầu Giấy,,Đường Phạm Văn Đồng
21.060125000000003,105.72181125,TCB,752,50,,thao.nguyen43,Huyện Hoài Đức,,Ngõ 82 Đường Lai Xá
20.9586275,105.7617975,MBB,12,24,,,Quận Hà Đông,Phường Phú La,Phố Văn Phúc
20.99618,105.87105,MBB,690,13,,vinh.nguyen12,Quận Hai Bà Trưng,Phường Vĩnh Tuy,Ngõ 622 Phố Minh Khai
21.003834545454549,105.93808818181819,VTB,847,37,Khách đã có loa rồi,ngoc.nguyen26,Huyện Gia Lâm,,Ngõ 239 Trâu Quỳ
21.054389999999998,105.73104000000001,TCB,537,17,,,Quận Nam Từ Liêm,Phường Phương Canh,Ngõ 81 Phố Nhổn
20.956333750000002,105.84670375,SHB,536,16,,truong.duong,Quận Hoàng Mai,Phường Hoàng Liệt,Phố Trần Thủ Độ
21.011575714285716,105.76883999999998,MBB,562,79,,cong.nguyen3,Quận Nam Từ Liêm,,Ngõ 54 Lê Quang Đạo
21.03241818181818,105.76561303030303,TPB,688,89,,phat.nguyen7,Quận Nam Từ Liêm,,Phố Nguyễn Cơ Thạch
21.07155,105.78721,TCB,17,15,,,Quận Bắc Từ Liêm,Phường Xuân Đỉnh,Ngõ 337 Đường Phạm Văn Đồng
20.98608,105.81109,MBB,560,32,,hai.le8,Quận Thanh Xuân,,Phố Hạ Đình
20.908855882352942,105.88464176470588,MBB,892,61,,truong.duong,Huyện Thường Tín,,Đường Đông Mỹ – Vạn Phúc
21.011888571428571,105.79968571428572,MBB,512,25,,,Quận Cầu Giấy,Phường Trung Hoà,Ngõ 43 Phố Trung Kính
21.037941764705881,105.81218823529413,TCB,363,62,,,Quận Ba Đình,,Phố Đội Cấn
21.043267500000002,105.7659875,MBB,750,22,,,Quận Nam Từ Liêm,Phường Cầu Diễn,Ngõ 304 Đường Hồ Tùng Mậu
21.080968888888886,105.77298333333333,AGRIBANK,854,31,,phat.nguyen7,Quận Bắc Từ Liêm,,Phố Văn Hội
21.117474166666664,105.8281525,TCB,649,109,,,Huyện Đông Anh,,Đường Võ Nguyên Giáp
21.038735,105.8044725,TCB,398,11,,,Quận Cầu Giấy,Phường Quan Hoa,Ngõ 58 Đường Nguyễn Khánh Toàn
20.984634999999997,105.8231475,TCB,664,16,,dung.vu2,Quận Hoàng Mai,Phường Định Công,Phố Định Công Thượng
20.992344999999997,105.79432750000001,MBB,382,15,,,Quận Nam Từ Liêm,Phường Trung Văn,Đường Trung Văn
20.982905833333337,105.74293875,TPB,555,59,,vinh.nguyen12,Quận Hà Đông,,Phố La Dương
21.002517500000003,105.82604749999999,MBB,390,21,,,Quận Đống Đa,Phường Khương Thượng,Ngõ 191 Khương Thượng
21.061572500000004,105.72155583333334,TCB,11,55,,thao.nguyen43,Huyện Hoài Đức,,Đường Bắc Lai Xá
21.00148,105.82862,MSB,4,15,,,Quận Đống Đa,Phường Khương Thượng,Ngõ 72 Tôn Thất Tùng
21.070510000000002,105.80122200000001,TCB,482,17,,,Quận Bắc Từ Liêm,Phường Xuân Đỉnh,Đường Xuân Đỉnh
20.986992857142855,105.79648285714286,TPB,128,117,,phat.nguyen7,Quận Nam Từ Liêm,,Đường Nguyễn Trãi
20.99397947368421,105.77779736842106,MBB,972,35,,,Quận Nam Từ Liêm,,Phố Cương Kiên
20.989629166666667,105.803465,MBB,934,21,,,Quận Thanh Xuân,Phường Thanh Xuân Nam,Ngõ 475 Nguyễn Trãi
20.9973,105.80075,MBB,700,13,,,Quận Thanh Xuân,Phường Nhân Chính,Ngõ 102 Khuất Duy Tiến
21.008338199999997,105.93841540000001,TCB,174,109,,ngoc.nguyen26,Huyện Gia Lâm,,Ngách 367/100 phố Ngô Xuân Quảng
21.109358461538459,105.84609769230771,BIDV,893,35,,,Huyện Đông Anh,,Ngõ Số 3
21.023578695652173,105.8496695652174,VCB,959,59,,thuong.nguyen9,Quận Hoàn Kiếm,,Phố Lý Thường Kiệt
20.983856250000002,105.83336375,TCB,398,21,,dung.vu2,Quận Hoàng Mai,Phường Định Công,Đường Vành đai 2.5
21.010289687500002,105.93529156250001,TCB,473,133,,,Huyện Gia Lâm,,Ngõ 367 phố Ngô Xuân Quảng
20.972351250000003,105.84526500000001,VCB,608,31,,anh.vu10,Quận Hoàng Mai,,Ngõ 1277 Đường Giải Phóng
20.971171111111111,105.77564333333333,BIDV,546,22,,,Quận Hà Đông,Phường Quang Trung,Phố Cù Chính Lan
20.967285000000004,105.8187161111111,TPB,888,30,,quyet.do,Huyện Thanh Trì,,Đường Thanh Liệt
21.037851538461538,105.7854476923077,TCB,888,59,Mc có loa của TCB,bao.pham1,Quận Cầu Giấy,,Ngõ 130 Đường Xuân Thủy
20.847431666666669,105.76992666666666,VTB,19,19,,thao.nguyen43,Huyện Thanh Oai,Thị trấn Kim Bài,Quốc lộ 21B
21.128216785714287,105.77992214285715,BIDV,58,84,,,Huyện Đông Anh,,Đường Tây Cao Tốc
21.013593103448272,105.81187965517242,MBB,654,59,,,Quận Đống Đa,,Phố Vũ Ngọc Phan
21.042315357142858,105.77498178571429,VTB,115,88,Bán loa thành công bán kính 100m,bao.pham1,Quận Cầu Giấy,,Phố Mai Dịch
21.00354,105.84088,PVCOM,835,11,,,Quận Đống Đa,Phường Phương Mai,Đường Giải Phóng
20.966935,105.821625,TCB,888,15,,quyet.do,Huyện Thanh Trì,Xã Thanh Liệt,Ngõ 634 Đường Kim Giang
21.009895757575755,105.93779303030303,MBB,366,87,,ngoc.nguyen26,Huyện Gia Lâm,,Ngách 367/21 phố Ngô Xuân Quảng
21.013227272727271,105.86161727272727,VCB,999,38,,,Quận Hai Bà Trưng,,Phố Lê Quý Đôn
21.014621875000003,105.768883125,TCB,296,36,đã có loa tech,phat.nguyen7,Quận Nam Từ Liêm,,Đường Lê Quang Đạo
20.983752711864408,105.80012423728813,TPB,939,384,,quyet.do,Huyện Thanh Trì,,Phố Triều Khúc
21.019752857142855,105.80600857142858,TCB,827,17,,,Quận Đống Đa,Phường Láng Thượng,Ngõ 14 Phố Pháo Đài Láng
20.984749230769232,105.79943769230769,VCB,280,39,,hai.le8,Quận Thanh Xuân,,Phố Triều Khúc
21.04239,105.7595175,VTB,304,11,,phat.nguyen7,Quận Bắc Từ Liêm,Phường Phú Diễn,Đường Cầu Diễn
20.979295714285712,105.80093142857143,MBB,896,19,,quyet.do,Huyện Thanh Trì,Xã Tân Triều,Ngõ 3 Phố Triều Khúc
20.924993125,105.855360625,MBB,10,50,,quyet.do,Huyện Thanh Trì,,Đường Vũ Lăng
20.993781499999997,105.8496355,MBB,765,68,,hung.nguyen27,Quận Hai Bà Trưng,,Đường Trương Định
21.048208000000002,105.792378,MBB,999,17,,tan.nguyen15,Quận Bắc Từ Liêm,Phường Cổ Nhuế 1,Ngõ 120 Hoàng Quốc Việt
21.05677,105.67988384615384,TCB,101,19,,,Huyện Hoài Đức,Xã Dương Liễu,Đường Kẻ Sấu
20.973598666666668,105.83862,VCB,868,43,,truong.duong,Quận Hoàng Mai,,Đường Eco Lake View
21.090400799999998,105.6663576,BIDV,538,83,,,Huyện Đan Phượng,,Đường Đoài Khê
21.029284285714287,105.80262571428571,MBB,500,110,,minh.nguyen24,Quận Đống Đa,,Đường Cầu Giấy
20.955729681528663,105.82228242038218,MBB,100,581,,,Huyện Thanh Trì,,Ngách 168/25 Phan Trọng Tuệ
21.061624615384616,105.77187538461538,MBB,447,29,,,Quận Bắc Từ Liêm,Phường Cổ Nhuế 2,Đường Phạm Văn Nghị
21.015327333333335,105.64923266666666,MBB,869,61,,ngoc.duong1,Huyện Quốc Oai,,Đường Chùa Thầy
21.031838999999998,105.81241700000001,SHINHAN,339,79,,,Quận Ba Đình,,Phố Đào Tấn
21.050260833333336,105.83950916666666,TCB,553,20,,,Quận Tây Hồ,Phường Yên Phụ,Đường Thanh Niên
20.980056666666666,105.78642833333333,SHB,W60,18,,,Quận Hà Đông,Phường Mộ Lao,Phố Nguyễn Văn Trỗi
21.173844545454543,105.89425363636364,VTB,E01,38,,,Huyện Đông Anh,,Đường Thư Lâm
20.989019285714289,105.87410571428572,MBB,196,62,,anh.vu10,Quận Hoàng Mai,,Ngõ 150 Phố Tân Khai
20.946689166666669,105.75689166666666,TCB,894,52,,,Quận Hà Đông,,Phố Xốm
21.062448571428572,105.72030428571428,HDB,366,41,,thao.nguyen43,Huyện Hoài Đức,,Đường Bắc Lai Xá
20.99866,105.81163733333334,BIDV,585,59,,hai.le8,Quận Thanh Xuân,,Phố Chính Kinh
21.0614025,105.781215,VCB,909,39,,doan.ngo,Quận Bắc Từ Liêm,,Ngõ 100 Cổ Nhuế
21.009451333333335,105.76535533333333,NCB,901,42,Cài đặt loa thành công bán kính 100m
Mid: MOMO9OTE20260507,cong.nguyen3,Quận Nam Từ Liêm,,Ngõ 60 Phố Phú Đô
20.970579999999998,105.74764111111112,MBB,284,30,,dung.vu3,Quận Hà Đông,,Phố Ỷ La
21.031251785714286,105.7718425,TCB,948,77,Cửa hàng đã dùng loa ngân hàng khác,cong.nguyen3,Quận Nam Từ Liêm,,Hẻm 25 Ngách 36 Ngõ 5 Phú Mỹ
20.968854545454541,105.76889969696968,TCB,503,71,,vinh.nguyen12,Quận Hà Đông,,Phố Ngô Thì Nhậm
20.975796666666668,105.78676333333334,TPB,999,28,,,Quận Hà Đông,Phường Văn Quán,Ngõ 22 Phố Dương Lâm
21.045446000000002,105.769028,MBB,678,14,,,Quận Nam Từ Liêm,Phường Cầu Diễn,Ngõ 196 Đường Hồ Tùng Mậu
21.050742079207922,105.76199831683169,TCB,662,327,Thành công cài đặt loa cho khách trong bán kính 100m
Mid: MOMOMTY520260506,cong.nguyen3,Quận Bắc Từ Liêm,,Ngõ 193 Đường Phú Diễn
21.063917999999997,105.81035999999999,MBB,984,27,,,Quận Tây Hồ,Phường Xuân La,Phố Vệ Hồ
21.045265404040403,105.76248252525251,TCB,730,464,,doan.ngo,Quận Bắc Từ Liêm,,Đường Phú Diễn
21.031559230769233,105.78664230769232,SHB,869,63,,phuong.nguyen44,Quận Cầu Giấy,,Phố Dịch Vọng Hậu
21.033790000000003,105.73873333333334,TCB,310,29,,,Quận Nam Từ Liêm,Phường Xuân Phương,Đường Xuân Phương
21.02494,105.61605333333334,VPB,07C,20,,,Huyện Thạch Thất,Xã Hữu Bằng,Cổng Đông
20.970397,105.866865,TCB,899,20,,,Quận Hoàng Mai,Phường Yên Sở,Đường Tam Trinh
20.993317619047616,105.80480571428571,VTB,816,58,,cong.lan,Quận Thanh Xuân,,Đường Nguyễn Trãi
21.037096666666667,105.77877444444445,MBB,34,54,,,Quận Cầu Giấy,,Ngõ 26 Đường Hồ Tùng Mậu
21.011451875,105.83699937499999,VPB,706,58,,,Quận Đống Đa,,Phố Xã Đàn
21.020623750000002,105.77644375000001,TCB,250,26,,phat.nguyen7,Quận Nam Từ Liêm,Phường Mỹ Đình 1,Ngõ 402 Mỹ Đình
20.98484357142857,105.83941571428571,MBB,236,31,,hai.le8,Quận Thanh Xuân,,Phố Định Công
20.989771249999997,105.793195,TCB,920,33,,cong.nguyen3,Quận Nam Từ Liêm,,Đường Phùng Khoang
21.05652111111111,105.78438444444444,TCB,11,26,,,Quận Bắc Từ Liêm,Phường Cổ Nhuế 2,Ngõ 488 Phố Trần Cung
20.987746153846153,105.86214076923078,TCB,85,39,,anh.vu10,Quận Hoàng Mai,,Ngõ 299 Đường Hoàng Mai
20.995868,105.840051,TCB,17,17,,,Quận Thanh Xuân,Phường Phương Liệt,Ngõ 40 Phố Phương Liệt
21.001910000000002,105.80286416666667,BIDV,555,31,Bán kính 100m,cong.lan,Quận Thanh Xuân,,Phố Lê Văn Thiêm
21.023832631578948,105.8053852631579,BIDV,631,47,,tien.truong,Quận Đống Đa,,Ngõ 84 Chùa Láng
21.00680375,105.93691499999998,VCB,868,25,,hung.nguyen27,Huyện Gia Lâm,Thị trấn Trâu Quỳ,Ngõ 52 đường Trâu Quỳ
20.986144,105.841143,MBB,734,30,Không tìm thấy,truong.duong,Quận Hoàng Mai,,Đường Giải Phóng
20.99864545454545,105.80544272727272,TCB,556,37,Khách đã có loa teck,cong.lan,Quận Thanh Xuân,,Phố Lê Văn Thiêm
21.001005,105.73847625,MBB,539,68,,phat.nguyen7,Quận Nam Từ Liêm,,Đại Việt 4
20.97943714285714,105.80116571428572,TCB,755,35,,,Huyện Thanh Trì,,Ngõ 3 Phố Triều Khúc
20.980276190476189,105.78641904761905,TCB,669,58,,vinh.nguyen12,Quận Hà Đông,,Phố Nguyễn Văn Trỗi
21.074663928571432,105.77352416666666,VTB,886,317,,doan.ngo,Quận Bắc Từ Liêm,,Lê Văn Hiến
21.021821111111112,105.79140222222223,TCB,776,22,,,Quận Cầu Giấy,Phường Yên Hoà,Phố Yên Hòa
21.044914583333334,105.79350416666665,VTB,185,65,,,Quận Cầu Giấy,,Ngõ 24 Phố Nghĩa Tân
21.0875375,105.78667250000001,TCB,790,23,,,Quận Bắc Từ Liêm,Phường Đông Ngạc,Phố Nhật Tảo
21.031470000000002,105.79994142857142,TCB,632,41,,nhi.vu1,Quận Cầu Giấy,,Đường Cầu Giấy
20.96450619047619,105.81691142857142,TCB,838,54,,,Huyện Thanh Trì,,Ngõ 788 Đường Kim Giang
21.029389,105.80354899999999,MBB,999,29,,,Quận Ba Đình,Phường Ngọc Khánh,Đường Cầu Giấy
21.022621111111111,105.84893777777778,VTB,888,26,,,Quận Hoàn Kiếm,Phường Trần Hưng Đạo,Phố Thợ Nhuộm
21.01568125,105.826225,MBB,386,21,,,Quận Đống Đa,Phường Quang Trung,Ngách 64/49 Nguyễn Lương Bằng
20.981725555555553,105.79409777777779,MSB,479,25,,,Quận Hà Đông,Phường Văn Quán,Đường Chiến Thắng
21.046290769230765,105.78358538461538,VTB,879,33,,doan.ngo,Quận Bắc Từ Liêm,,Đường Hoàng Quốc Việt
21.002631599999994,105.8447434,TCB,757,160,,minh.nguyen24,Quận Hai Bà Trưng,,Phố Trần Đại Nghĩa
21.005631290322579,105.83026161290323,TCB,888,70,,,Quận Đống Đa,,Phố Tôn Thất Tùng
21.008100000000002,105.73061222222223,TPB,980,21,,,Huyện Hoài Đức,Xã An Khánh,Đường Hoàng Tùng
21.002193124999998,105.829669375,TCB,58,51,,,Quận Đống Đa,,Phố Tôn Thất Tùng
20.970039999999997,105.77407166666667,TCB,679,22,,,Quận Hà Đông,Phường Quang Trung,Phố Nguyễn Viết Xuân
21.069628333333334,105.79590666666667,BIDV,812,14,,,Quận Bắc Từ Liêm,Phường Xuân Đỉnh,Ngõ 205 Đường Xuân Đỉnh
21.034886190476186,105.74746857142858,MBB,261,195,,cong.nguyen3,Quận Nam Từ Liêm,,Đường Phương Canh
20.986669090909093,105.78330545454546,MBB,712,46,,vinh.nguyen12,Quận Hà Đông,,Khu Đô Thị Mỗ Lao
20.982205789473685,105.88652789473684,MBB,721,67,Đã có loa,anh.nguyen91,Quận Hoàng Mai,,Phố Nam Dư
21.021404,105.80195199999999,VCB,155,37,,hung.nguyen27,Quận Đống Đa,,Ngõ 185 Chùa Láng
20.963296666666668,105.82659666666667,VPB,963,18,,truong.duong,Quận Hoàng Mai,Phường Hoàng Liệt,Phố Linh Đường
20.937756250000003,105.76564375,BIDV,716,35,,dung.vu3,Quận Hà Đông,,Đường Phú Cường
21.0778775,105.7926175,TCB,572,13,,,Quận Bắc Từ Liêm,Phường Xuân Đỉnh,Promenade Road
21.030364285714285,105.76230714285714,BIDV,462,16,,,Quận Nam Từ Liêm,Phường Cầu Diễn,Ngõ 6 Trần Hữu Dực
20.99412,105.77645,BIDV,337,10,,,Quận Nam Từ Liêm,Phường Trung Văn,Phố Đại Linh
20.978685254237291,105.81997949152543,TCB,151,168,,anh.vu10,Quận Hoàng Mai,,Ngõ 250 Đường Kim Giang
21.128544666666667,105.7686,BIDV,237,37,,,Huyện Đông Anh,,Đường Mới
20.990578571428575,105.85364428571428,BIDV,970,15,,truong.duong,Quận Hoàng Mai,Phường Hoàng Văn Thụ,Đường Hoàng Mai
21.035455512820512,105.82036564102565,TCB,594,254,,hai.le8,Quận Ba Đình,,Ngõ 279 Phố Đội Cấn
21.010818,105.85986600000001,SHB,602,26,,,Quận Hai Bà Trưng,Phường Đống Mác,Phố Lò Đúc
21.022120476190477,105.8203257142857,TCB,844,50,,hai.le8,Quận Ba Đình,,Ngõ 371 La Thành
21.041648888888894,105.77657055555555,MBB,145,33,,phuong.nguyen44,Quận Cầu Giấy,,Phố Doãn Kế Thiện
21.076659534883717,105.72804790697674,TCB,391,140,,,Quận Bắc Từ Liêm,,Đường Tây Tựu
21.030022631578948,105.85654421052632,ACB,688,44,,thuong.nguyen9,Quận Hoàn Kiếm,,Phố Hàng Vôi
20.967875000000003,105.78634166666666,BIDV,624,22,,,Quận Hà Đông,Phường Phúc La,Ngõ 1 Đường Phùng Hưng
20.9818735,105.7885775,BIDV,340,37,,,Quận Hà Đông,,Phố Ao Sen
21.040575714285712,105.78264653061224,BIDV,965,165,,,Quận Cầu Giấy,,Ngõ 215 Phố Trần Quốc Hoàn
21.041360909090908,105.87403727272726,TCB,761,34,,ngoc.nguyen26,Quận Long Biên,,Phố Hồng Tiến
21.035683333333335,105.78716285714286,VTB,550,53,,phuong.nguyen44,Quận Cầu Giấy,,Ngõ 85 Đường Xuân Thuỷ
21.01537,105.64922,MBB,246,14,,,Huyện Quốc Oai,Xã Sài Sơn,Đường Chùa Thầy
21.019208461538465,105.83533307692308,SHB,162,31,,,Quận Đống Đa,,Ngõ Hòa Bình
21.001880833333331,105.84375083333332,TCB,636,28,,,Quận Hai Bà Trưng,Phường Đồng Tâm,Ngõ 75 Đường Giải Phóng
20.984196875,105.818178125,TPB,745,57,,,Quận Thanh Xuân,,Ngõ 318 Phố Bùi Xương Trạch
21.010222499999998,105.83050750000001,AGRIBANK,08E,10,,,Quận Đống Đa,Phường Nam Đồng,Phố Nguyễn Ngọc Doãn
21.028771666666668,105.84301249999999,TCB,10,26,,,Quận Hoàn Kiếm,Phường Cửa Nam,Đường Điện Biên Phủ
20.997820000000004,105.85020538461536,BIDV,30,38,,,Quận Hai Bà Trưng,,Phố Bạch Mai
21.000026000000002,105.82310549999998,MBB,656,39,,,Quận Thanh Xuân,,Phố Nguyễn Ngọc Nại
20.985538888888886,105.81916851851852,VCCB,666,70,,hai.le8,Quận Thanh Xuân,,Phố Bùi Xương Trạch
21.007243,105.80370074999999,BIDV,0V1,129,,,Quận Thanh Xuân,,Phố Nguyễn Thị Thập
20.983681578947373,105.79124263157897,MBB,46,54,,dung.vu3,Quận Hà Đông,,Đường Trần Phú
21.034088,105.783238,MBB,372,24,,,Quận Cầu Giấy,Phường Dịch Vọng Hậu,Ngõ 78 Duy Tân
20.956298750000002,105.84228125,MBB,400,32,,,Huyện Thanh Trì,,Ngõ 148 Đường Ngọc Hồi
21.01215903846154,105.78271442307692,TCB,732,199,,phat.nguyen7,Quận Nam Từ Liêm,,Phố Mễ Trì Hạ
21.041117500000002,105.54984,TCB,878,13,,,Huyện Thạch Thất,Xã Bình Yên,Đường tỉnh 420
21.032062,105.846704,TCB,706,21,,,Quận Hoàn Kiếm,Phường Cửa Đông,Phố Đường Thành
20.951963499999998,105.75717799999998,MBB,328,64,,dung.vu3,Quận Hà Đông,,Phố Ba La
20.847504,105.84796,TCB,789,11,,anh.nguyen85,Huyện Thường Tín,Xã Nguyễn Trãi,Đường đi sông Nhuệ
21.05544157894737,105.73273736842104,TCB,469,36,Khách đang dùng loa tech,cong.lan,Quận Bắc Từ Liêm,,Đường Tây Tựu
21.010425555555553,105.778295,ACB,767,110,,cong.nguyen3,Quận Nam Từ Liêm,,Phố Đồng Me
20.967012054794523,105.77990821917808,BIDV,666,299,,vinh.nguyen12,Quận Hà Đông,,Phố Lê Lai
21.063344655172415,105.87928965517241,MBB,696,155,Không có nhu cầu,phuong.pham10,Quận Long Biên,,Ngõ 103 Đường Lý Sơn
21.069443076923076,105.78712692307691,BIDV,122,48,Đã có loa ngân hàng,tan.nguyen15,Quận Bắc Từ Liêm,,Ngõ 355 Xuân Đỉnh
21.045062941176468,105.7514594117647,MBB,376,67,,,Quận Bắc Từ Liêm,,Ngõ 91 Đường Cầu Diễn
21.030032692307696,105.82271961538461,ACB,141,79,,hai.le8,Quận Ba Đình,,Phố Núi Trúc
20.985220000000005,105.84659599999999,TPB,5,41,,truong.duong,Quận Hoàng Mai,,Đường Trương Định
21.00989,105.81642,TPB,150,34,,minh.nguyen24,Quận Đống Đa,,Ngách 2 Ngõ Thái Thịnh 1
21.006744,105.81217,MBB,924,21,,,Quận Thanh Xuân,Phường Nhân Chính,Ngõ 53 Phố Quan Nhân
21.003451538461537,105.91246999999998,TCB,11,30,,ngoc.nguyen26,Quận Long Biên,,Đường Giáp Hải
21.023048928571423,105.79459642857145,BIDV,437,75,,,Quận Cầu Giấy,,Ngõ 113 Yên Hòa
20.99716,105.8459,VPB,266,12,,vinh.nguyen12,Quận Hai Bà Trưng,Phường Trương Định,Phố Trần Đại Nghĩa
20.867555,105.85366714285716,MBB,646,42,Đã có loa không có nhu cầu lắp thêm,truong.duong,Huyện Thường Tín,,Đường Dương Trực Nguyên
21.001125384615385,105.83704000000002,TCB,16,29,,,Quận Đống Đa,Phường Phương Mai,Phố Lương Định Của
20.952105000000003,105.8088211111111,BIDV,206,62,,quyet.do,Huyện Thanh Trì,,Đường Tả Thanh Oai
21.013603200000002,105.79488479999999,VCB,279,111,,,Quận Cầu Giấy,,Phố Mạc Thái Tông
20.998608181818181,105.86638181818184,TCB,668,14,,vinh.nguyen12,Quận Hai Bà Trưng,Phường Vĩnh Tuy,Phố Minh Khai
21.040602307692311,105.77469461538462,TCB,344,35,Đã có loa của bank bidv,bao.pham1,Quận Cầu Giấy,,Phố Mai Dịch
20.9877125,105.82813333333333,TCB,756,30,,dung.vu2,Quận Hoàng Mai,,Phố Trần Điền
21.061960625,105.80536874999999,VCB,327,40,,dat.tran8,Quận Tây Hồ,,Ngõ 77 Xuân La
20.993988,105.856362,MBB,792,13,,,Quận Hai Bà Trưng,Phường Minh Khai,Ngõ Gốc Đề
21.053262500000002,105.78835833333335,MBB,758,24,,tan.nguyen15,Quận Bắc Từ Liêm,Phường Cổ Nhuế 1,Phố Trần Cung
21.01727,105.54821,BIDV,615,12,,,Huyện Thạch Thất,Xã Tân Xã,Mục Uyên
21.00708,105.854742,BIDV,725,34,,,Quận Hai Bà Trưng,,Phố Võ Thị Sáu
21.0744575,105.773235,VIB,655,17,,,Quận Bắc Từ Liêm,Phường Đức Thắng,Lê Văn Hiến
21.000865,105.8187425,MBB,666,32,,,Quận Thanh Xuân,,Phố Khương Trung
21.062997857142857,105.83215,ACB,580,35,,dat.tran8,Quận Tây Hồ,,Đường Âu Cơ
21.036828333333336,105.8699775,SHB,969,63,Không có cửa hàng nào,huy.le16,Quận Long Biên,,Phố Trịnh Tố Tâm
21.089115000000003,105.92677642857143,TCB,208,32,,ngoc.nguyen26,Huyện Gia Lâm,,Ngõ 15 Đường Đình Xuyên
21.027642500000002,105.77280625,VPB,957,28,,,Quận Nam Từ Liêm,Phường Mỹ Đình 2,Ngách 212 Ngõ 63 Lê Đức Thọ
20.999067857142858,105.84568380952381,BIDV,826,122,,minh.nguyen24,Quận Hai Bà Trưng,,Phố Trần Đại Nghĩa
20.988771111111113,105.81807222222223,MBB,313,30,,hai.le8,Quận Thanh Xuân,,Phố Bùi Xương Trạch
21.021651250000005,105.84791875,TCB,391,32,,thuong.nguyen9,Quận Hoàn Kiếm,,Ngõ Xóm Hà Hồi
21.036119999999997,105.80268230769232,BIDV,897,31,,nhi.vu1,Quận Cầu Giấy,,Ngõ 72 Dương Quảng Hàm
20.989065,105.830465,MSB,608,10,loa khác,dung.vu2,Quận Hoàng Mai,Phường Định Công,Phố Trần Nguyên Đán
21.011964000000003,105.860118,BIDV,969,11,,,Quận Hai Bà Trưng,Phường Phạm Đình Hổ,Phố Nguyễn Cao
21.006181782178214,105.82610603960396,VTB,153,332,,minh.nguyen24,Quận Đống Đa,,Ngách 8 Ngõ 95 Chùa Bộc
21.011558181818181,105.77933,MBB,259,35,Cửa hàng đã sử dụng loa ngân hàng,cong.nguyen3,Quận Nam Từ Liêm,,Ngõ 59 Đường Mễ Trì
20.997982666666669,105.83927866666666,MBB,7,34,,cong.lan,Quận Thanh Xuân,,Đường Trường Chinh
21.031424,105.77817,VPB,123,14,,,Quận Nam Từ Liêm,Phường Mỹ Đình 2,Phố Trần Bình
21.021552222222223,105.77505666666667,BIDV,405,27,,,Quận Nam Từ Liêm,Phường Mỹ Đình 2,Ngõ 139 Mỹ Đình
21.041011785714282,105.78410035714285,MBB,550,74,,,Quận Cầu Giấy,,Ngõ 199 Trần Quốc Hoàn
21.01562818181818,105.8498509090909,TCB,11,39,,,Quận Hai Bà Trưng,,Phố Bùi Thị Xuân
21.071723333333331,105.77290666666667,TPB,868,16,,,Quận Bắc Từ Liêm,Phường Đức Thắng,Ngõ 32 Phố Viên
20.963041666666669,105.82231333333334,MBB,456,48,,,Quận Hoàng Mai,,Phố Bùi Quốc Khái
21.044431250000002,105.75460541666668,MBB,888,146,,doan.ngo,Quận Bắc Từ Liêm,,Đường Cầu Diễn
21.037921,105.812246,TCB,11,19,,,Quận Ba Đình,Phường Vĩnh Phúc,Phố Đội Cấn
21.007815714285716,105.737556,TPB,789,80,,,Quận Nam Từ Liêm,,Văn Lang 2
21.018406969696972,105.86214484848485,TCB,414,49,,hung.nguyen27,Quận Hai Bà Trưng,,Đường Nguyễn Khoái
21.046538,105.78443600000001,VPB,833,14,,tan.nguyen15,Quận Bắc Từ Liêm,Phường Cổ Nhuế 1,Ngõ 234 Hoàng Quốc Việt
21.068549130434782,105.80488826086957,TCB,955,52,,dat.tran8,Quận Tây Hồ,,Ngõ 38 Xuân La
21.043924999999998,105.777695,BIDV,868,13,,dat.tran8,Quận Cầu Giấy,Phường Mai Dịch,Ngõ 144 Phố Mai Dịch
21.031008333333336,105.764775,BIDV,568,31,,phat.nguyen7,Quận Nam Từ Liêm,,Phố Nguyễn Cơ Thạch
20.98434285714286,105.87531714285714,TCB,999,12,,anh.nguyen91,Quận Hoàng Mai,Phường Vĩnh Hưng,Phố Vĩnh Hưng
21.023378095238094,105.80880333333333,TCB,13,79,,,Quận Đống Đa,,Phố Chùa Láng
21.022859743589741,105.80084282051283,BIDV,10,91,,,Quận Đống Đa,,Phố Chùa Láng
21.035685161290321,105.76185225806452,BIDV,245,86,,cong.nguyen3,Quận Nam Từ Liêm,,Phố Hàm Nghi
21.0104325,105.836775,MBB,425,32,,,Quận Đống Đa,,Phố Đào Duy Anh
21.018482857142857,105.82796142857141,VIB,300,27,,hai.le8,Quận Đống Đa,Phường Ô Chợ Dừa,Phố Nguyễn Hy Quang
21.028435217391308,105.81494304347825,TCB,624,64,,hai.le8,Quận Ba Đình,,Ngõ 20 Nguyễn Công Hoan
21.018157777777777,105.549705,BIDV,254,42,,,Huyện Thạch Thất,,Mục Uyên
21.035880666666664,105.81318666666667,TCB,52,61,,hai.le8,Quận Ba Đình,,Phố Kim Mã Thượng
21.023470000000003,105.80389423076923,BIDV,787,67,,,Quận Đống Đa,,Phố Chùa Láng
20.966688,105.765824,BIDV,46,23,,,Quận Hà Đông,Phường La Khê,Ngõ 8 Phan Đình Giót
21.000519999999998,105.84500727272727,MBB,792,53,,minh.nguyen24,Quận Hai Bà Trưng,,Ngõ 72 Trần Đại Nghĩa
21.03556,105.774894,ACB,97,18,,dat.tran8,Quận Cầu Giấy,Phường Mai Dịch,Ngõ 58 Phố Trần Bình
21.052599999999998,105.744875,MBB,978,13,,phat.nguyen7,Quận Bắc Từ Liêm,Phường Minh Khai,Ngách 53/45 Phố Ngọa Long
20.98659,105.78317142857144,VTB,A12,32,,vinh.nguyen12,Quận Hà Đông,,Khu Đô Thị Mỗ Lao
21.084974285714281,105.61617428571428,MBB,10,24,,,Huyện Phúc Thọ,Xã Tam Hiệp,Quốc lộ 32
21.00434441558442,105.93790857142857,TCB,475,220,,,Huyện Gia Lâm,,Đường Trâu Quỳ
21.012166666666669,105.82570599999998,BIDV,9N2,141,đã có loa,hung.nguyen27,Quận Đống Đa,,Ngõ 136 Phố Tây Sơn
21.002923333333335,105.86546333333334,BIDV,401,104,,,Quận Hai Bà Trưng,,Phố Lạc Trung
20.982450952380955,105.84992571428572,TCB,788,109,Đã có loa,anh.nguyen91,Quận Hoàng Mai,,Phố Tân Mai
21.03828,105.77742,BIDV,337,19,,dat.tran8,Quận Cầu Giấy,Phường Mai Dịch,Ngõ 66 Đường Hồ Tùng Mậu
21.028659545454545,105.77303181818182,TPB,888,59,có loa tp,phat.nguyen7,Quận Nam Từ Liêm,,Đường Phú Mỹ
20.980323333333335,105.80065,HDB,943,30,,,Huyện Thanh Trì,,Ngõ 118 Đường Tân Triều
20.983108947368418,105.78877315789475,VTB,653,39,,vinh.nguyen12,Quận Hà Đông,,Phố Nguyễn Văn Lộc
20.982442499999998,105.86188,TCB,541,26,,truong.duong,Quận Hoàng Mai,Phường Hoàng Văn Thụ,Louis 1
21.001222000000002,105.849532,BIDV,888,11,,,Quận Hai Bà Trưng,Phường Bách Khoa,Phố Tạ Quang Bửu
21.010998421052633,105.51849157894736,TCB,904,50,,tuan.tran8,Huyện Thạch Thất,,Quốc lộ 21
21.031987692307695,105.79913307692308,VIB,159,26,,,Quận Cầu Giấy,Phường Quan Hoa,Đường Cầu Giấy
21.03237,105.79196,TCB,431,22,,,Quận Cầu Giấy,Phường Dịch Vọng,Ngõ 72 Dịch Vọng
20.956506666666666,105.80840222222223,TCB,799,29,,quyet.do,Huyện Thanh Trì,Xã Tả Thanh Oai,Đường Phan Trọng Tuệ
21.01641625,105.81055843749998,TCB,165,92,,,Quận Đống Đa,,Phố Nguyên Hồng
21.031945,105.826945,MBB,2,11,,dat.tran8,Quận Ba Đình,Phường Kim Mã,Phố Giang Văn Minh
21.018452307692307,105.80964076923077,VTB,780,55,,,Quận Đống Đa,,Ngõ 55 Huỳnh Thúc Kháng
21.05048,105.75959285714286,TCB,52,27,,phat.nguyen7,Quận Bắc Từ Liêm,Phường Phú Diễn,Đường Chùa Bụt Mọc
21.029717749999996,105.774998,TCB,119,114,,,Quận Nam Từ Liêm,,Phố Trần Bình
21.00082,105.87175333333333,MBB,24,11,,vinh.nguyen12,Quận Hai Bà Trưng,Phường Vĩnh Tuy,Phố Vĩnh Tuy
21.01884,105.86331200000002,VTB,888,82,,,Quận Hoàn Kiếm,,Vạn Kiếp
21.039,105.80461,TCB,798,11,,,Quận Cầu Giấy,Phường Quan Hoa,Ngõ 1 Đông Quan
20.962345,105.78515833333334,TCB,463,20,,,Quận Hà Đông,Phường Kiến Hưng,Đường Đa Sỹ
21.08804409090909,105.66341863636364,TCB,17,74,,,Huyện Đan Phượng,,Đường 19 - 5
21.023438,105.79943533333332,TCB,995,28,,nhi.vu1,Quận Đống Đa,Phường Láng Thượng,Ngõ 1008 Láng
21.01246272727273,105.80453,TCB,392,23,,,Quận Cầu Giấy,Phường Trung Hoà,Ngách 219/61 Đường Nguyễn Ngọc Vũ
20.972174736842106,105.79699052631578,VCB,200,31,,quyet.do,Huyện Thanh Trì,,Đường Yên Xá
21.034880555555553,105.79510138888891,TCB,843,181,,,Quận Cầu Giấy,,Phố Chùa Hà
21.016354705882353,105.79091529411767,OCB,859,29,,,Quận Cầu Giấy,Phường Trung Hoà,Phố Nguyễn Xuân Nham
21.111479,105.78967666666665,BIDV,120,68,Không tìm thấy,anh.nguyen93,Huyện Đông Anh,,Đường 23B
21.02374141791045,105.80109365671642,TCB,886,855,,minh.nguyen24,Quận Đống Đa,,Ngõ 1194 Đường Láng
21.047703333333331,105.76297555555556,VCB,604,40,,doan.ngo,Quận Bắc Từ Liêm,,Đường Phú Diễn
21.03346294117647,105.74135588235295,TCB,460,39,,,Quận Nam Từ Liêm,,Ngõ 225 Đường Phương Canh
20.998483333333333,105.86867666666667,MBB,90,11,,vinh.nguyen12,Quận Hai Bà Trưng,Phường Vĩnh Tuy,Phố Minh Khai
21.118118823529411,105.64697588235293,AGRIBANK,699,46,,,Huyện Đan Phượng,,Đường Ba Đảm Đang
20.96053375,105.80146125,TCB,662,20,,,Quận Hà Đông,Phường Kiến Hưng,Đường Cầu Bươu
21.006513999999996,105.9370484,TCB,123,104,,,Huyện Gia Lâm,,Đường Trâu Quỳ
21.045021000000002,105.77723099999999,MBB,248,38,,,Quận Cầu Giấy,,Phố Nguyễn Khả Trạc
21.014206666666663,105.81087333333332,MBB,168,37,,,Quận Đống Đa,,Phố Vũ Ngọc Phan
20.98306344827586,105.79484931034483,MBB,260,64,,,Quận Hà Đông,,Ngõ 60 Lương Ngọc Quyến
21.023795833333335,105.79779750000002,MBB,334,46,ko lắp,nhi.vu1,Quận Cầu Giấy,,Cầu Cót
21.035501250000003,105.78759624999999,TCB,790,34,,,Quận Cầu Giấy,,Ngách 44/64 Phố Trần Thái Tông
21.023243783783784,105.80745459459459,VPB,821,157,,,Quận Đống Đa,,Phố Chùa Láng
20.974153333333334,105.75731111111109,BIDV,20,17,,,Quận Hà Đông,Phường La Khê,Phố Phan Kế Toại
21.063567777777777,105.77989111111111,MBB,439,39,,doan.ngo,Quận Bắc Từ Liêm,,Đường Cổ Nhuế
21.014613469387754,105.78050374149662,MBB,99,360,,phat.nguyen7,Quận Nam Từ Liêm,,Phố Mễ Trì Hạ
21.23567,105.84883,MBB,966,11,Khách không có nhu cầu sd loa,hiep.nguyen2,Huyện Sóc Sơn,Xã Tiên Dược,Quốc lộ 3
20.986876666666657,105.79313549019608,VPB,721,122,,cong.nguyen3,Quận Nam Từ Liêm,,Ngõ 67 Phùng Khoang
20.9672,105.81873999999999,MBB,134,11,,quyet.do,Huyện Thanh Trì,Xã Thanh Liệt,Đường Thanh Liệt
21.044965000000005,105.76235000000001,PVCOM,383,83,,doan.ngo,Quận Bắc Từ Liêm,,Đường Phú Diễn
21.074844375000005,105.7729046875,TCB,840,113,,doan.ngo,Quận Bắc Từ Liêm,,Lê Văn Hiến
20.970967999999996,105.74676933333332,MBB,346,33,,,Quận Hà Đông,,Phố Ỷ La
21.018980000000006,105.79940951219513,TCB,999,87,,,Quận Cầu Giấy,,Phố Vũ Phạm Hàm
20.970612857142857,105.77988428571427,TPB,869,40,,,Quận Hà Đông,,Phố Bà Triệu
20.99359227272727,105.94184409090909,TCB,55,64,,,Huyện Gia Lâm,,Đường Hải Đăng
20.966223636363637,105.79488363636362,MBB,761,40,,quyet.do,Huyện Thanh Trì,,Đường Yên Xá
21.052999230769231,105.74498384615384,TCB,5,173,,doan.ngo,Quận Bắc Từ Liêm,,Ngách 53/45 Phố Ngọa Long
21.01442625,105.76861416666667,BIDV,844,79,,cong.nguyen3,Quận Nam Từ Liêm,,Ngách 8/11 Lê Quang Đạo
21.007594,105.71713400000002,MBB,606,31,,thao.nguyen43,Huyện Hoài Đức,,Phú Vinh
20.967748333333333,105.80557999999999,VPB,895,11,,quyet.do,Huyện Thanh Trì,Xã Thanh Liệt,Đường Phạm Tu
21.006389583333338,105.83206583333333,MBB,666,275,,minh.nguyen24,Quận Đống Đa,,Ngõ 103 Phạm Ngọc Thạch
20.993556363636362,105.940535,TCB,657,70,,,Huyện Gia Lâm,,Đại Dương 2
20.983996666666666,105.87411444444444,BIDV,453,30,,truong.duong,Quận Hoàng Mai,,Đường Lĩnh Nam
21.045759411764706,105.86818705882354,TCB,436,66,,ngoc.nguyen26,Quận Long Biên,,Phố Long Biên 1
21.005501304347828,105.77832782608695,VTB,337,117,,phat.nguyen7,Quận Nam Từ Liêm,,Phố Mễ Trì Thượng
21.045009999999998,105.77832000000001,MBB,228,32,,,Quận Cầu Giấy,,Phố Phạm Thận Duật
20.98681,105.85110963636365,TCB,662,186,,,Quận Hoàng Mai,,Phố Lương Khánh Thiện
21.040871538461534,105.78539615384615,MBB,588,31,,,Quận Cầu Giấy,,Ngách 199/3 Trần Quốc Hoàn
20.98402,105.79394363636364,VCB,602,29,,,Quận Hà Đông,Phường Văn Quán,Ngõ 55 Trần Phú
21.032122499999996,105.8017775,TPB,933,11,,,Quận Cầu Giấy,Phường Quan Hoa,Ngách 34 Ngõ 68 Cầu Giấy
21.054171666666665,105.881015,SeABank,340,14,Chưa có nhu câud,phuong.pham10,Quận Long Biên,Phường Thượng Thanh,Ngõ 52 Phố Gia Quất
20.96881625,105.766115,MBB,568,16,,vinh.nguyen12,Quận Hà Đông,Phường Hà Cầu,Ngõ 2 Quang Trung
20.998715416666666,105.84743109374999,ACB,47,545,,,Quận Hai Bà Trưng,,Ngõ Tự Do
21.028813571428575,105.77300142857143,TCB,469,65,,phat.nguyen7,Quận Nam Từ Liêm,,Đường Phú Mỹ
20.985954687500005,105.81219020833333,TCB,835,243,,hai.le8,Quận Thanh Xuân,,Ngõ 460 Khương Đình
20.979083999999997,105.79982799999999,BIDV,395,34,,,Huyện Thanh Trì,,Ngõ 3 Phố Triều Khúc
20.98162103448276,105.78978706896552,TCB,11,259,,,Quận Hà Đông,,Đường Trần Phú
20.981583124999997,105.785210625,BIDV,115,56,,vinh.nguyen12,Quận Hà Đông,,Phố Nguyễn Văn Trỗi
20.9893525,105.787345,ACB,986,24,,,Quận Nam Từ Liêm,Phường Trung Văn,Đường Trung Văn
21.005406666666666,105.93857888888888,MBB,888,76,,ngoc.nguyen26,Huyện Gia Lâm,,Ngõ 215 đường Trâu Quỳ
20.942770714285718,105.75771464285712,MBB,268,59,,dung.vu3,Quận Hà Đông,,Phố Phú Lương
21.021737142857145,105.85355142857142,BIDV,581,16,,,Quận Hoàn Kiếm,Phường Hàng Bài,Ngõ 3 Vọng Đức
20.99929333333333,105.86131,BIDV,536,11,,,Quận Hai Bà Trưng,Phường Quỳnh Mai,Ngõ 260 Phố Kim Ngưu
20.943285,105.75758875000001,MBB,44,31,,,Quận Hà Đông,,Phố Xốm
21.002909666666671,105.86544966666665,BIDV,235,104,,,Quận Hai Bà Trưng,,Phố Lạc Trung
21.036163239436615,105.77322802816902,TCB,512,244,,phuong.nguyen44,Quận Cầu Giấy,,Phố Dương Khuê
21.010878181818182,105.80612522727273,VCB,868,152,,,Quận Cầu Giấy,,Ngõ 189 Nguyễn Ngọc Vũ
20.999992,105.80756933333332,VCB,378,72,Thành côn bán kinh 100m,cong.lan,Quận Thanh Xuân,,Đường Vũ Trọng Phụng
21.067875454545451,105.79499272727273,ABB,640,66,,,Quận Bắc Từ Liêm,,Hẻm 16 Ngách 59 Ngõ 205 Xuân Đỉnh
21.00161806451613,105.84570451612903,ACB,975,134,,minh.nguyen24,Quận Hai Bà Trưng,,Ngõ 55 Phố Lê Thanh Nghị
20.98319,105.80258,SHB,966,12,,quyet.do,Huyện Thanh Trì,Xã Tân Triều,Ngõ 111 Triều Khúc
21.01073,105.80633599999999,MBB,989,13,,,Quận Cầu Giấy,Phường Trung Hoà,Ngõ 189 Nguyễn Ngọc Vũ
21.036784347826085,105.80168695652175,TCB,937,57,Khong lap,phuong.nguyen44,Quận Cầu Giấy,,Phố Dương Quảng Hàm
21.0348575,105.78827906250001,TCB,637,92,,,Quận Cầu Giấy,,Ngách 44/64 Phố Trần Thái Tông
21.05402,105.736608,MBB,992,18,,phat.nguyen7,Quận Bắc Từ Liêm,Phường Minh Khai,Ngõ 132 Đường Cầu Diễn
20.956936,105.80763,TCB,19,14,,quyet.do,Huyện Thanh Trì,Xã Tả Thanh Oai,Đường Phan Trọng Tuệ
21.010091,105.832025,VTB,668,29,,,Quận Đống Đa,Phường Trung Tự,Ngõ 4C Phố Đặng Văn Ngữ
21.04765625,105.762968125,MBB,298,42,,doan.ngo,Quận Bắc Từ Liêm,,Đường Phú Diễn
21.1400743902439,105.85157414634146,VCB,795,133,,anh.nguyen93,Huyện Đông Anh,,Đường Cao Lỗ
20.986793333333335,105.52613666666666,BIDV,115,13,,,Huyện Thạch Thất,Xã Thạch Hoà,Quốc lộ 21
21.015534285714285,105.80505142857143,VCB,902,22,ko có nhu cầu,nhi.vu1,Quận Đống Đa,Phường Láng Hạ,Đường Láng
20.989797391304347,105.64674391304348,VTB,957,80,,ngoc.duong1,Huyện Quốc Oai,,Phố Huyện
21.003758333333334,105.74238,TCB,729,31,,cong.nguyen3,Quận Nam Từ Liêm,,Ngõ 67 Phố Cầu Cốc
20.9801175,105.7313675,MBB,842,43,Khách hàng đã có loa MBBank,thao.nguyen43,Huyện Hoài Đức,,Đường La Phù
21.198380999999998,105.42431599999999,BIDV,589,23,,,Huyện Ba Vì,Thị trấn Tây Đằng,Đường Quảng Oai
20.969172631578942,105.79407289473686,MBB,76,86,,,Huyện Thanh Trì,,Ngách 87/59 Đường Yên Xá
21.044382988505749,105.81990252873562,MBB,568,198,,dat.tran8,Quận Tây Hồ,,Phố Nguyễn Đình Thi
21.010937647058821,105.8046905882353,BIDV,92,43,,nhi.vu1,Quận Cầu Giấy,,Ngõ 43 Phố Nguyễn Thị Định
20.983536666666669,105.80885833333332,BIDV,329,32,kh k có nhu cầu,quyet.do,Huyện Thanh Trì,,Đường Nguyễn Xiển
20.976764,105.883488,TCB,70,10,,,Quận Hoàng Mai,Phường Trần Phú,Ngõ 84 Phố Tây Trà
21.010885555555557,105.81796999999999,MBB,316,39,,,Quận Đống Đa,,Ngõ Thái Thịnh 1
21.13844416666667,105.87551833333333,TCB,560,35,,,Huyện Đông Anh,,Ngõ 322 Đường Việt Hùng
21.0005825,105.84140624999999,SHB,328,23,,,Quận Hai Bà Trưng,Phường Đồng Tâm,Cầu vượt Ngã tư Vọng
20.997170999999998,105.88008266666667,MBB,878,127,,,Quận Hoàng Mai,,Phố Đại Đồng
20.992109999999997,105.72455714285715,MBB,461,17,,,Huyện Hoài Đức,Xã An Khánh,Đường An Khánh
21.002932142857144,105.86546428571427,OCB,17,70,,,Quận Hai Bà Trưng,,Phố Lạc Trung
21.010656666666666,105.95409000000001,TCB,864,12,,hung.nguyen27,Huyện Gia Lâm,Thị trấn Trâu Quỳ,Quốc lộ 17
21.019810909090911,105.8061459090909,TCB,775,90,,,Quận Đống Đa,,Phố Pháo Đài Láng
20.969793333333332,105.78605111111111,MBB,548,36,,vinh.nguyen12,Quận Hà Đông,,Phố Bạch Thái Bưởi
21.00957875,105.80622374999999,MBB,55,21,,,Quận Cầu Giấy,Phường Trung Hoà,Phố Hoàng Ngân
21.037048000000002,105.764658,TCB,996,15,,,Quận Nam Từ Liêm,Phường Cầu Diễn,Ngõ 65 Phố Nguyễn Đổng Chi
21.046305714285715,105.76603,TCB,146,35,,,Quận Bắc Từ Liêm,,Ngõ 172 Đường Phú Diễn
21.011986764705878,105.77513529411763,BIDV,398,71,,phat.nguyen7,Quận Nam Từ Liêm,,Đường Mễ Trì
21.053597916666664,105.73354916666666,BIDV,687,76,,doan.ngo,Quận Bắc Từ Liêm,,Đường Cầu Diễn
20.983981000000004,105.828452,BIDV,775,42,,,Quận Hoàng Mai,,Ngõ 60 Định Công Hạ
20.984640000000002,105.83880888888889,MBB,948,19,,,Quận Thanh Xuân,Phường Phương Liệt,Phố Định Công
21.05062666666667,105.78981,TCB,169,12,,dat.tran8,Quận Cầu Giấy,Phường Nghĩa Tân,Phố Trần Cung
20.984122982456142,105.87445280701753,OCB,829,226,,truong.duong,Quận Hoàng Mai,,Đường Lĩnh Nam
21.023535882352945,105.80419352941176,MBB,286,93,,,Quận Đống Đa,,Phố Chùa Láng
21.00356,105.85102900000001,VCB,688,23,,vinh.nguyen12,Quận Hai Bà Trưng,Phường Thanh Nhàn,Ngõ Trại Găng
20.964302222222223,105.77200722222223,TPB,488,55,,vinh.nguyen12,Quận Hà Đông,,Phố Hà Cầu
20.871598529411759,105.80486235294117,PVCOM,36,77,,,Huyện Thanh Oai,,Đường tỉnh 427
21.055451333333334,105.86586933333334,TCB,8,55,,ngoc.nguyen26,Quận Long Biên,,Đường Ngọc Thụy
20.89716,105.855104,TCB,900,18,Mc đã có loa,anh.nguyen85,Huyện Thường Tín,Xã Duyên Thái,Đường Phương Dung
20.97993,105.849805,MBB,840,25,,dung.vu2,Quận Hoàng Mai,Phường Tân Mai,Ngõ 240 Tân Mai
20.992908823529415,105.84274705882353,VPB,888,32,,minh.nguyen24,Quận Hai Bà Trưng,,Phố Trần Đại Nghĩa
20.996153478260869,105.75266521739131,BIDV,678,48,,cong.nguyen3,Quận Nam Từ Liêm,,Đường Tây Mỗ
21.045955000000003,105.74843062499998,MBB,528,40,,cong.nguyen3,Quận Bắc Từ Liêm,,Ngõ 189 Đường Cầu Diễn
21.05404529411765,105.73680549019609,TCB,658,168,,,Quận Bắc Từ Liêm,,Ngõ 132 Đường Cầu Diễn
21.04111823529411,105.77879576470586,VTB,172,227,,phuong.nguyen44,Quận Cầu Giấy,,Phố Doãn Kế Thiện
21.035861578947369,105.77387842105264,BIDV,461,92,,nhi.vu1,Quận Cầu Giấy,,Ngõ 59 Dương Khuê
21.030301666666666,105.77099833333334,MBB,495,11,,,Quận Nam Từ Liêm,Phường Mỹ Đình 2,Đường Phú Mỹ
21.007793529411767,105.76677705882354,MBB,248,56,,phat.nguyen7,Quận Nam Từ Liêm,,Phố Phú Đô
21.008506666666669,105.81408749999999,MBB,686,24,,nhi.vu1,Quận Đống Đa,Phường Láng Hạ,Đường Láng
20.999605000000003,105.85029538461539,VIB,666,64,,hung.nguyen27,Quận Hai Bà Trưng,,Ngõ 392 Phố Bạch Mai
21.034938333333333,105.82559416666666,BIDV,357,41,,,Quận Ba Đình,,Phố Đội Cấn
20.979133611111109,105.80036361111111,MBB,367,99,,,Huyện Thanh Trì,,Ngõ 3 Phố Triều Khúc
21.04074962962963,105.76485296296296,OCB,3,106,,,Quận Nam Từ Liêm,,Ngõ 304 Đường Hồ Tùng Mậu
21.076348000000003,105.788124,TCB,276,14,,,Quận Bắc Từ Liêm,Phường Xuân Đỉnh,Xuân Đỉnh
20.993095999999998,105.81715799999999,TCB,734,35,,,Quận Thanh Xuân,,Ngõ 345 Phố Khương Trung
21.04066898305085,105.73523627118645,TCB,432,150,,,Quận Nam Từ Liêm,,Ngõ 84 Xuân Phương
21.024179999999998,105.79355333333334,TCB,638,12,,,Quận Cầu Giấy,Phường Yên Hoà,Phố Hoa Bằng
21.037744736842104,105.78528736842107,MBB,744,112,Mc đã có loa,bao.pham1,Quận Cầu Giấy,,Ngõ 130 Đường Xuân Thủy
20.96899467741936,105.7468043548387,TCB,645,132,,vinh.nguyen12,Quận Hà Đông,,Ngõ 230 Ỷ La
20.99346,105.80193000000001,MBB,310,24,,,Quận Thanh Xuân,Phường Thanh Xuân Trung,Đường Khuất Duy Tiến
21.055580000000003,105.84038000000001,VPB,291,38,,dat.tran8,Quận Tây Hồ,,Ngõ 76 An Dương
21.052660000000003,105.744815,MBB,978,13,,phat.nguyen7,Quận Bắc Từ Liêm,Phường Minh Khai,Ngách 53/45 Phố Ngọa Long
21.032902105263162,105.91243052631579,VCB,796,43,Không tìm thấy,phuong.pham10,Quận Long Biên,,Ngõ 42 Phố Sài Đồng
20.98421,105.87645,TCB,709,13,,anh.nguyen91,Quận Hoàng Mai,Phường Vĩnh Hưng,Ngõ 313 Lĩnh Nam
20.976141071428572,105.78912785714284,MBB,965,74,,vinh.nguyen12,Quận Hà Đông,,Phố Nguyễn Khuyến
21.021606,105.81511533333332,TCB,785,55,,,Quận Ba Đình,,Phố Thành Công
20.998437058823534,105.85999235294119,BIDV,423,111,,,Quận Hai Bà Trưng,,Phố 8 Tháng 3
21.030610833333334,105.774135,VPB,62,18,,,Quận Nam Từ Liêm,Phường Mỹ Đình 2,Đường Mỹ Đình
21.074853,105.77323200000001,TPB,666,64,,doan.ngo,Quận Bắc Từ Liêm,,Lê Văn Hiến
21.053963333333336,106.00654,MBB,498,11,,,Huyện Gia Lâm,Xã Lệ Chi,Đường Lệ Chi
21.069236666666665,105.80246933333333,TCB,84,51,,tan.nguyen15,Quận Bắc Từ Liêm,,Đường Xuân La
20.982625,105.87809,TCB,993,27,,anh.nguyen91,Quận Hoàng Mai,Phường Vĩnh Hưng,Đường Lĩnh Nam
20.979224166666665,105.78319,NCB,801,27,,,Quận Hà Đông,Phường Mộ Lao,Ngách 108/43 Trần Phú
20.990639259259257,105.85363938271607,SHB,C51,212,,truong.duong,Quận Hoàng Mai,,Đường Hoàng Mai
20.994612500000002,105.8207825,TCB,685,17,,hai.le8,Quận Thanh Xuân,Phường Khương Trung,Ngõ 211 Phố Khương Trung
21.044447101449279,105.75276536231883,SACOM,220,226,,cong.nguyen3,Quận Bắc Từ Liêm,,Ngõ 2 Phố Kiều Mai
20.952464736842106,105.80860894736841,TCB,230,46,,quyet.do,Huyện Thanh Trì,,Đường Tả Thanh Oai
21.006614545454543,105.77990636363636,TCB,359,25,,,Quận Nam Từ Liêm,Phường Mễ Trì,Ngách 50 Ngõ 106 Mễ Trì Thượng
20.985869090909091,105.92863727272726,not defined or m2m,688,32,,,Huyện Gia Lâm,,Đường Đa Tốn
21.047686666666671,105.87475916666666,MBB,546,28,,hung.nguyen27,Quận Long Biên,Phường Ngọc Lâm,Ngõ 366 Đường Ngọc Lâm
20.988104705882353,105.84040764705881,BIDV,261,46,,hai.le8,Quận Thanh Xuân,,Đường Giải Phóng
21.075244545454545,105.77221454545453,BIDV,99,58,,,Quận Bắc Từ Liêm,,Sông Nhuệ
21.068707777777778,105.80479111111111,VTB,40,24,,,Quận Tây Hồ,Phường Xuân La,Ngõ 38 Xuân La
20.983685,105.8485625,TCB,864,37,Kh có loa,anh.nguyen91,Quận Hoàng Mai,,Phố Tân Mai
20.991414444444448,105.70675333333332,BIDV,455,40,,thao.nguyen43,Huyện Hoài Đức,,Đường An Thượng
21.012728,105.81672700000001,VPB,309,38,,hung.nguyen27,Quận Đống Đa,,Ngõ 160 Phố Thái Thịnh
21.036053749999997,105.72877583333333,TCB,807,83,,thao.nguyen43,Huyện Hoài Đức,,Ngách 27 Ngõ 4 Vân Canh
20.998768518518521,105.73983074074074,MBB,789,75,,phat.nguyen7,Quận Nam Từ Liêm,,Âu Lạc 3
21.01325,105.8360125,MBB,957,14,,,Quận Đống Đa,Phường Phương Liên,Ngõ Chợ Khâm Thiên
20.990642727272732,105.79392393939393,BIDV,333,91,,cong.nguyen3,Quận Nam Từ Liêm,,Đường Phùng Khoang
20.982442400000004,105.79872399999999,BIDV,535,52,,,Huyện Thanh Trì,,Ngõ 68 Triều Khúc
20.980943846153846,105.82694,MBB,990,40,,,Quận Hoàng Mai,,Ngõ 99 Định Công Hạ
21.031365555555553,105.84697500000001,TCB,945,39,,thuong.nguyen9,Quận Hoàn Kiếm,,Phố Đường Thành
20.998283076923077,105.84641269230769,VCB,201,80,,hung.nguyen27,Quận Hai Bà Trưng,,Ngõ 213 Trần Đại Nghĩa
21.009798666666665,105.518204,MBB,782,39,,tuan.tran8,Huyện Thạch Thất,,Quốc lộ 21
20.9983575,105.75178,TCB,435,34,,cong.nguyen3,Quận Nam Từ Liêm,,Đường Tây Mỗ
21.0110365625,105.93618656249998,VTB,454,105,,ngoc.nguyen26,Huyện Gia Lâm,,Ngõ 19 phố Thành Trung
20.991480869565219,105.94916999999998,ACB,477,75,,,Huyện Gia Lâm,,Đường San Hô
21.01267,105.781745,VPB,127,10,,,Quận Nam Từ Liêm,Phường Mễ Trì,Ngõ 14 Phố Mễ Trì Hạ
20.98651090909091,105.79339818181818,TPB,868,27,,,Quận Nam Từ Liêm,Phường Trung Văn,Đường Phùng Khoang
20.98577,105.92905,VIB,84,19,,,Huyện Gia Lâm,Xã Đa Tốn,Đường Đa Tốn
21.0911225,105.587709375,VIB,654,40,,,Huyện Phúc Thọ,,Quốc lộ 32
21.0742,105.77465666666667,MBB,456,11,,,Quận Bắc Từ Liêm,Phường Đức Thắng,Lê Văn Hiến
21.054723333333332,105.76192333333333,AGRIBANK,589,10,,phat.nguyen7,Quận Bắc Từ Liêm,Phường Phú Diễn,Ngõ 8 Nguyễn Đạo An
20.99965,105.82438300000001,TCB,975,40,,,Quận Thanh Xuân,,Phố Nguyễn Ngọc Nại
21.069095,105.78712375,BIDV,980,15,,,Quận Bắc Từ Liêm,Phường Xuân Đỉnh,Ngõ 397 Đường Phạm Văn Đồng
21.034224468085103,105.74392712765956,MBB,984,229,,cong.nguyen3,Quận Nam Từ Liêm,,Đường Phương Canh
21.034799259259259,105.78350962962963,BIDV,833,58,Khách hàng đã có loa bank,bao.pham1,Quận Cầu Giấy,,Ngách 181/18 Xuân Thủy
20.988698888888887,105.84712444444446,MBB,491,54,,,Quận Hoàng Mai,,Phố Nguyễn An Ninh
20.944816363636363,105.80613181818183,BIDV,834,62,,,Huyện Thanh Trì,,Hữu Thanh Oai
21.033218999999995,105.793655,TCB,682,38,,phuong.nguyen44,Quận Cầu Giấy,,Phố Dịch Vọng
21.068084000000002,105.77885233333333,TCB,271,98,,doan.ngo,Quận Bắc Từ Liêm,,Đường Cổ Nhuế
21.021123333333335,105.84480333333333,VPB,623,23,,,Quận Hoàn Kiếm,Phường Trần Hưng Đạo,Phố Trần Bình Trọng
21.06950725,105.7871675,MSB,63,133,Không có nhu cầu . Từ chối thẳng ko nghe tư vấn thêm,tan.nguyen15,Quận Bắc Từ Liêm,,Ngõ 355 Xuân Đỉnh
21.03415857142857,105.81304785714286,VPB,372,37,,hai.le8,Quận Ba Đình,,Phố Phan Kế Bính
21.032041,105.792757,TCB,834,48,,nhi.vu1,Quận Cầu Giấy,,Ngõ 72 Dịch Vọng
21.205676666666665,105.89048333333334,MBB,433,12,,hiep.nguyen2,Huyện Sóc Sơn,Xã Kim Lũ,Đường 16
21.050264,105.78311000000001,MBB,902,12,,tan.nguyen15,Quận Bắc Từ Liêm,Phường Cổ Nhuế 1,Phố Tôn Quang Phiệt
20.956923809523811,105.73767619047619,TCB,354,62,Không tìm thấy,vinh.nguyen12,Quận Hà Đông,,Phố Nguyễn Trác
21.022810294117647,105.79257264705882,BIDV,66,122,,,Quận Cầu Giấy,,Phố Yên Hòa
20.952410476190476,105.75715333333336,VTB,535,53,,dung.vu3,Quận Hà Đông,,Phố Ba La
21.039009333333333,105.74317699999999,TCB,685,71,,phat.nguyen7,Quận Nam Từ Liêm,,Phố Phan Tây Nhạc
21.010592727272726,105.79497954545457,TCB,176,48,,,Quận Cầu Giấy,,Ngõ 17 Phố Tú Mỡ
20.9904825,105.84782437500002,TCB,709,134,,truong.duong,Quận Hoàng Mai,,Đường Trương Định
21.038702999999998,105.871114,BIDV,207,34,Khách đã có loa rồi,ngoc.nguyen26,Quận Long Biên,,Phố Ái Mộ
21.031395454545454,105.78509909090907,TPB,744,74,,nhi.vu1,Quận Cầu Giấy,,Ngõ 66 Dịch Vọng Hậu
20.999471428571429,105.7514657142857,TCB,929,14,,bao.pham1,Quận Nam Từ Liêm,Phường Đại Mỗ,Đường Tây Mỗ
21.031378421052633,105.80568210526317,VIB,705,47,,hai.le8,Quận Ba Đình,,Ngõ 32 Đường Bưởi
20.972342307692308,105.77615538461538,MBB,8,62,,,Quận Hà Đông,,Phố Phan Đình Phùng
21.045010833333329,105.81062833333333,BIDV,305,43,,,Quận Ba Đình,,Phố Vĩnh Phúc
21.053990000000002,105.733141,VCB,546,41,,doan.ngo,Quận Bắc Từ Liêm,,Đường Cầu Diễn
21.005968888888887,105.51848555555556,MBB,526,56,,tuan.tran8,Huyện Thạch Thất,,Quốc lộ 21
21.021823333333334,105.84761055555555,MBB,868,37,,thuong.nguyen9,Quận Hoàn Kiếm,,Ngõ Xóm Hạ Hồi
21.0343625,105.74519,MBB,2.00E+04,29,,,Quận Nam Từ Liêm,Phường Phương Canh,Đường Phương Canh
21.00613,105.86809,VIB,302,22,,,Quận Hai Bà Trưng,Phường Thanh Lương,Đê Trần Khát Chân
21.050988510638291,105.7381419148936,ACB,562,162,,phat.nguyen7,Quận Bắc Từ Liêm,,Phố Nguyên Xá
21.00319,105.80757,ACB,398,15,,,Quận Thanh Xuân,Phường Nhân Chính,Ngõ 80 Phố Nhân Hòa
21.044620277777778,105.75124222222222,TCB,783,127,,,Quận Bắc Từ Liêm,,Ngõ 91 Đường Cầu Diễn
21.011495714285715,105.7654407142857,TCB,381,52,,,Quận Nam Từ Liêm,,Ngõ 8 Lê Quang Đạo
20.983704285714285,105.85788142857143,MBB,238,15,,truong.duong,Quận Hoàng Mai,Phường Hoàng Văn Thụ,Phố Tân Mai
21.044839189189187,105.78469216216216,BIDV,916,99,,,Quận Bắc Từ Liêm,,Phố Đặng Thùy Trâm
21.026670779220783,105.80119831168831,TCB,493,178,,minh.nguyen24,Quận Đống Đa,,Ngõ 1194 Đường Láng
20.847454999999997,105.7699675,VPB,534,21,,thao.nguyen43,Huyện Thanh Oai,Thị trấn Kim Bài,Quốc lộ 21B
20.983871764705885,105.76943647058823,TCB,481,38,,dung.vu3,Quận Hà Đông,,Đường Vạn Phúc
21.00337,105.86341,MSB,122,10,,,Quận Hai Bà Trưng,Phường Thanh Lương,Ngõ 325 Phố Kim Ngưu
21.020181818181818,105.61612272727274,MBB,694,24,,,Huyện Thạch Thất,Xã Phùng Xá,Liên Xã
21.004577875000003,105.8257535,BIDV,54,257,,,Quận Đống Đa,,Phố Khương Thượng
20.952362142857144,105.74029714285714,BIDV,349,41,K tim đk,vinh.nguyen12,Quận Hà Đông,,Ngõ 2 Nghĩa Lộ
21.043674000000003,105.77543000000001,MBB,120,20,,dat.tran8,Quận Cầu Giấy,Phường Mai Dịch,Phố Mai Dịch
21.03499604166667,105.73888666666666,TCB,268,166,,thao.nguyen43,Huyện Hoài Đức,,Đường Phương Canh
21.031014374999998,105.79240625,MBB,722,27,,,Quận Cầu Giấy,Phường Dịch Vọng,Phố Dịch Vọng
21.070114444444442,105.82284888888887,WOORIBANK,566,20,,,Quận Tây Hồ,Phường Quảng An,Phố Quảng Bá
20.985737777777778,105.87594333333332,TCB,577,20,,anh.nguyen91,Quận Hoàng Mai,Phường Vĩnh Hưng,Ngõ 87 Phố Vĩnh Hưng
21.023588333333336,105.79804833333333,MBB,766,31,ko có nhu cầu,nhi.vu1,Quận Cầu Giấy,,Đường Nguyễn Khang
21.002830000000003,105.73713888888889,TCB,880,41,,cong.nguyen3,Quận Nam Từ Liêm,,Đường Văn Lang
20.978784,105.792788,TCB,888,13,,,Quận Hà Đông,Phường Văn Quán,Đường 19 Tháng 5
21.013384,105.78886800000001,MBB,444,17,,,Quận Nam Từ Liêm,Phường Mễ Trì,Phố Đinh Núp
20.990223225806449,105.79769999999999,TCB,172,91,Chủ tài khoảng không ở nhà hẹn hôm khác quay lại,cong.lan,Quận Thanh Xuân,,Ngõ 116 Lương Thế Vinh
20.984693333333333,105.787075,MSB,751,14,,,Quận Hà Đông,Phường Mộ Lao,Phố Nguyễn Văn Lộc
20.987976666666665,105.71371166666665,TCB,735,17,,,Huyện Hoài Đức,Xã An Khánh,Đường Chùa Tổng
21.009811428571428,105.81891714285715,TCB,572,11,,,Quận Đống Đa,Phường Thịnh Quang,Phố Thái Thịnh
21.05465,105.78668,TCB,934,54,,phat.nguyen7,Quận Bắc Từ Liêm,,Phố Trần Cung
21.078627500000003,105.8199375,MBB,178,20,,,Quận Tây Hồ,Phường Nhật Tân,Đường Âu Cơ
20.988360600000004,105.80346759999999,BIDV,69,163,,cong.lan,Quận Thanh Xuân,,Ngõ 116 Nguyễn Xiển
20.904485,105.74074999999999,MBB,904,16,,thao.nguyen43,Huyện Thanh Oai,Xã Cao Viên,Đường Tà Đáy
21.018197368421053,105.80273000000001,MSB,978,389,,,Quận Đống Đa,,Đường Láng
21.010559999999998,105.85020176470589,TPB,999,85,,,Quận Hai Bà Trưng,,Ngõ Thái Phiên
21.047521666666665,105.80690166666666,TCB,350,39,,hai.le8,Quận Ba Đình,,Đường Hoàng Hoa Thám
21.039781666666666,105.73796166666666,TCB,34,26,,,Quận Nam Từ Liêm,Phường Phương Canh,Đường Xuân Phương
21.01246,105.86301,MBB,34,19,,,Quận Hai Bà Trưng,Phường Bạch Đằng,Phố Lương Yên
20.998645952380954,105.82853095238096,OCB,184,184,,,Quận Thanh Xuân,,Phố Lê Trọng Tấn
21.022059444444441,105.79172138888889,BIDV,47D,76,,,Quận Cầu Giấy,,Phố Yên Hòa
21.01973,105.811015,SHB,513,30,,tien.truong,Quận Đống Đa,,Ngõ 91 Đường Nguyễn Chí Thanh
20.947534285714287,105.84720571428571,TCB,660,18,,,Huyện Thanh Trì,Xã Tứ Hiệp,Đường Tứ Hiệp
20.984352,105.81849,ACB,27,30,,,Quận Thanh Xuân,,Ngõ 358 Phố Bùi Xương Trạch
20.967209999999998,105.818695,TCB,576,30,,quyet.do,Huyện Thanh Trì,,Đường Thanh Liệt
21.047530606060604,105.76346333333333,VTB,S01,101,,doan.ngo,Quận Bắc Từ Liêm,,Đường Phú Diễn
20.99975,105.87897000000001,MBB,252,15,,anh.nguyen91,Quận Hoàng Mai,Phường Vĩnh Hưng,Ngõ 431 Phố Vĩnh Hưng
21.017829499999998,105.7849745,MBB,866,54,,phat.nguyen7,Quận Nam Từ Liêm,,Phố Nguyễn Quốc Trị
21.02158375,105.80374875000001,BIDV,830,52,,,Quận Đống Đa,,Phố Huỳnh Thúc Kháng
20.977107999999998,105.7837245,MBB,674,138,,,Quận Hà Đông,,Đường Trần Phú
20.9894125,105.7873355,TCB,767,69,,cong.nguyen3,Quận Nam Từ Liêm,,Đường Trung Văn
21.051841250000003,105.61282250000001,MBB,838,17,,,Huyện Thạch Thất,Xã Canh Nậu,Đình Trọng
20.986249130434786,105.87627260869567,TCB,232,78,,anh.vu10,Quận Hoàng Mai,,Phố Vĩnh Hưng
20.98345625,105.95466625,MBB,483,32,,,Huyện Gia Lâm,,Đường Nguyễn Quý Trị
20.985188,105.841059,MBB,324,17,,truong.duong,Quận Hoàng Mai,Phường Giáp Bát,Đường Giải Phóng
20.999681714285714,105.87707257142856,TCB,887,92,,hung.nguyen27,Quận Hai Bà Trưng,,Ngõ 124 Phố Vĩnh Tuy
21.034783333333333,105.80014333333332,VCB,469,38,,nhi.vu1,Quận Cầu Giấy,,Ngõ 72 Dương Quảng Hàm
21.056285,105.866510625,VTB,888,49,,ngoc.nguyen26,Quận Long Biên,,Đường Ngọc Thụy
21.069058124999994,105.778335625,TCB,411,56,,doan.ngo,Quận Bắc Từ Liêm,,Đường Cổ Nhuế
21.041885999999998,105.809508,TCB,19,21,,,Quận Ba Đình,Phường Vĩnh Phúc,Ngõ 376 Đường Bưởi
20.990866,105.75304,MBB,704,11,,bao.pham1,Quận Nam Từ Liêm,Phường Đại Mỗ,Phố Nguyễn Văn Luyện
21.007978367346936,105.79585346938775,SHB,168,163,,,Quận Cầu Giấy,,Đường Trần Duy Hưng
20.986072,105.930876,TCB,522,30,,,Huyện Gia Lâm,,Đường Đa Tốn
20.9908865,105.72751850000002,MBB,390,49,Cách dùng loa ngân hàng,thao.nguyen43,Huyện Hoài Đức,,Đường Chùa Tổng
20.986626923076926,105.71761384615384,TCB,751,30,,thao.nguyen43,Huyện Hoài Đức,,Ngõ 1111 Đường Tỉnh 72
21.018843333333333,105.86210416666665,MBB,874,37,,thuong.nguyen9,Quận Hoàn Kiếm,,Đường Hồng Hà
20.990749756097557,105.85030268292684,MBB,898,88,,hung.nguyen27,Quận Hai Bà Trưng,,Ngõ 171 Đường Trương Định
21.039261111111117,105.78608313131313,TCB,967,553,,,Quận Cầu Giấy,,Phố Phan Văn Trường
21.059259393939389,105.72154060606061,VTB,690,83,,thao.nguyen43,Huyện Hoài Đức,,Đường Lai Xá
21.009963714285714,105.94018321428571,MBB,198,408,,,Huyện Gia Lâm,,Phố Thành Trung
21.055674,105.866444,SHB,488,20,Chưa có nhu cầu,phuong.pham10,Quận Long Biên,Phường Ngọc Thụy,Phố Nguyễn Thế Rục
21.006151428571428,105.77715285714285,TCB,331,22,,,Quận Nam Từ Liêm,Phường Mễ Trì,Ngõ 10 Đại lộ Thăng Long
21.0095898,105.82778400000001,MBB,480,103,,hung.nguyen27,Quận Đống Đa,,Ngõ 167 Tây Sơn
20.972135142857141,105.81998314285714,VCB,590,158,,quyet.do,Huyện Thanh Trì,,Đường cao tốc Vành đai 3
21.01505222222222,105.83392407407406,TCB,569,77,,minh.nguyen24,Quận Đống Đa,,Đường Đê La Thành
21.0018285,105.75062349999999,BIDV,340,50,,,Quận Nam Từ Liêm,,Ngõ 27 Đường Tây Mỗ
21.014764375,105.80406812499999,TPB,3,66,,,Quận Cầu Giấy,,Đường Trần Duy Hưng
21.013974594594593,105.86256243243243,MBB,3,179,Không bán thành công,minh.nguyen24,Quận Hai Bà Trưng,,Phố Nguyễn Huy Tự
21.052706666666666,105.73887833333333,VTB,410,24,,phat.nguyen7,Quận Bắc Từ Liêm,Phường Minh Khai,Ngõ 132 Đường Cầu Diễn
21.040770000000002,105.820082,TCB,717,26,,,Quận Ba Đình,Phường Liễu Giai,Ngõ 189 Hoàng Hoa Thám
21.049920833333331,105.74391611111112,TCB,977,69,,phat.nguyen7,Quận Bắc Từ Liêm,,Phố Ngọa Long
21.08875,105.65912,MBB,709,15,,,Huyện Đan Phượng,Thị trấn Phùng,Phố Nguyễn Thái Học
20.987457692307693,105.83822538461537,MBB,316,57,,cong.lan,Quận Thanh Xuân,,Ngõ 12 Nguyễn Văn Trỗi
21.048912222222221,105.7215611111111,TCB,179,30,,thao.nguyen43,Huyện Hoài Đức,,Đường Văn Minh
20.986151874999997,105.52580875,MBB,c82,66,,tuan.tran8,Huyện Thạch Thất,,Quốc lộ 21
20.999191111111109,105.87995888888888,MBB,997,45,,anh.vu10,Quận Hoàng Mai,,Phố Vĩnh Hưng
20.98507,105.82263769230769,TPB,333,65,,anh.vu10,Quận Hoàng Mai,,Ngõ 219 Phố Định Công Thượng
21.037882222222223,105.78547111111111,TCB,456,17,,,Quận Cầu Giấy,Phường Dịch Vọng Hậu,Ngõ 21 Phố Phan Văn Trường
21.015567058823532,105.80427117647059,MBB,12,92,,nhi.vu1,Quận Cầu Giấy,,Đường Nguyễn Khang
21.084920833333332,105.78876750000002,BIDV,443,24,,,Quận Bắc Từ Liêm,Phường Đông Ngạc,IA20 Ciputra
21.027262857142858,105.81512428571428,TCB,416,32,,hai.le8,Quận Ba Đình,,Phố Nguyễn Công Hoan
21.053525,105.87834000000001,VCB,378,13,Không có nhu cầu ,phuong.pham10,Quận Long Biên,Phường Thượng Thanh,Ngõ 54 Phố Gia Quất
20.976657499999998,105.796125,MBB,10,20,,,Quận Hà Đông,Phường Văn Quán,Đường Chiến Thắng
21.05379,105.80892333333333,MBB,396,14,,,Quận Cầu Giấy,Phường Nghĩa Đô,Đường Lạc Long Quân
21.050667777777782,105.80453666666668,MBB,884,30,,,Quận Cầu Giấy,,Đường Võ Chí Công
21.020951999999998,105.77567799999998,TCB,871,24,,,Quận Nam Từ Liêm,Phường Mỹ Đình 2,Ngõ 139 Mỹ Đình
21.029346875,105.84362999999999,VPB,261,53,,,Quận Hoàn Kiếm,,Phố Tống Duy Tân
20.9986625,105.8549725,MBB,77,15,,,Quận Hai Bà Trưng,Phường Quỳnh Lôi,Ngõ 172 Phố Hồng Mai
21.06495695652174,105.71658956521739,MBB,150,105,,thao.nguyen43,Huyện Hoài Đức,,Đường Vạn Xuân
20.990924999999994,105.796271,PVCOM,262,30,,,Quận Nam Từ Liêm,,Ngõ 182 Lương Thế Vinh
21.018918,105.792628,VCB,I20,19,,,Quận Cầu Giấy,Phường Yên Hoà,Phố Trung Kính
21.317572000000002,105.868568,TCB,230,16,,hiep.nguyen2,Huyện Sóc Sơn,Xã Trung Giã,Quốc lộ 3
21.084622857142854,105.78548666666667,MBB,618,43,,,Quận Bắc Từ Liêm,,Đường Tân Xuân
21.088445,105.782435,MBB,176,18,,,Quận Bắc Từ Liêm,Phường Đông Ngạc,Phố Kẻ Vẽ
21.003774999999997,105.83823,TCB,188,24,,,Quận Đống Đa,Phường Phương Mai,Ngõ 15- Phương Mai
20.979285263157895,105.88808263157895,TCB,810,63,,anh.nguyen91,Quận Hoàng Mai,,Ngõ 349 Nam Dư
20.70710166666667,105.84017,TCB,376,20,Khách hàng dùng loa ngân hàng,thao.nguyen43,Huyện Ứng Hòa,Xã Đồng Tân,Đường tỉnh 428
20.993310606060607,105.85760772727274,VCCB,732,143,Không có nhu cầu,truong.duong,Quận Hai Bà Trưng,,Ngách 254/92 Minh Khai
21.033770714285712,105.78568642857142,TCB,315,45,,nhi.vu1,Quận Cầu Giấy,,Ngõ 63 Phố Trần Quốc Vượng
21.050105625,105.79306187499999,TCB,17,32,,doan.ngo,Quận Bắc Từ Liêm,,Ngõ 106 Đường Hoàng Quốc Việt
21.0595125,105.78180954545455,TCB,104,134,,,Quận Bắc Từ Liêm,,Ngõ 43 Cổ Nhuế
21.053065882352939,105.74093764705881,AGRIBANK,56,60,,doan.ngo,Quận Bắc Từ Liêm,,Ngách 112/10 Phố Nguyên Xá
21.062994615384614,105.83248461538462,MBB,266,40,,dat.tran8,Quận Tây Hồ,,Phố Tứ Liên
21.014223076923074,105.51925846153847,MBB,404,42,,tuan.tran8,Huyện Thạch Thất,,Quốc lộ 21
21.035945357142854,105.7615542857143,ACB,981,56,,cong.nguyen3,Quận Nam Từ Liêm,,Phố Hàm Nghi
20.983085999999997,105.835118,BIDV,864,27,,dung.vu2,Quận Hoàng Mai,Phường Định Công,Phố Định Công
21.0169225,105.78259249999999,TCB,110,10,,,Quận Nam Từ Liêm,Phường Mễ Trì,Đường Phạm Hùng
21.076755,105.728055,BIDV,956,23,,,Quận Bắc Từ Liêm,Phường Tây Tựu,Đường Tây Tựu
21.043444285714287,105.79171714285715,BIDV,454,53,,,Quận Cầu Giấy,,Phố Nghĩa Tân
21.038025217391304,105.76428782608694,TCB,547,61,đã có loa,phat.nguyen7,Quận Nam Từ Liêm,,Phố Nguyễn Đổng Chi
20.957227826086957,105.84477434782609,TCB,718,67,,,Quận Hoàng Mai,,Ngõ 83 Đường Ngọc Hồi
21.011795714285714,105.79925142857144,TPB,888,36,,nhi.vu1,Quận Cầu Giấy,,Ngõ 43 Phố Trung Kính
20.983697222222219,105.87525,TCB,499,56,,truong.duong,Quận Hoàng Mai,,Đường Lĩnh Nam
20.957166875000002,105.73414125000002,BIDV,872,43,,,Quận Hà Đông,,Phố Yên Lộ
20.958209,105.80601700000001,MBB,376,84,Kh k có mhu cầu,quyet.do,Huyện Thanh Trì,,Đường Phan Trọng Tuệ
20.99057125,105.9427675,VIB,703,26,,,Huyện Gia Lâm,Xã Đa Tốn,Đại Dương 8
20.979545714285717,105.7953,ACB,737,19,,,Quận Hà Đông,Phường Văn Quán,Phố Văn Quán
21.039380357142857,105.77750571428572,AGRIBANK,410,50,,,Quận Cầu Giấy,,Ngõ 105 Phố Doãn Kế Thiện
21.007222666666664,105.82118600000001,ACB,856,62,,,Quận Đống Đa,,Phố Thái Thịnh
21.085683333333332,105.75252800000001,TCB,647,70,,doan.ngo,Quận Bắc Từ Liêm,,Ngõ 101 Đường Liên Mạc
20.948051428571432,105.80849571428573,MBB,864,48,,quyet.do,Huyện Thanh Trì,,Đường Tả Thanh Oai
20.739633999999995,105.91402000000001,TPB,888,36,Cửa hàng đã có loa,anh.nguyen85,Huyện Phú Xuyên,,Quốc lộ 1
20.993031379310342,105.85006413793104,ACB,681,109,,hung.nguyen27,Quận Hai Bà Trưng,,Đường Hoàng Mai
21.019856779661023,105.75028593220337,TCB,705,178,,,Quận Nam Từ Liêm,,Nhuệ Giang
21.008540909090911,105.93854636363638,TCB,11,39,,,Huyện Gia Lâm,,Ngõ 367 phố Ngô Xuân Quảng
21.012026875,105.782516875,TCB,33,42,Không tìm thấy,thu.nguyen27,Quận Nam Từ Liêm,,Ngõ 126 Phố Mễ Trì Hạ
20.981619277108436,105.78762289156626,MBB,2,187,,,Quận Hà Đông,,Ngõ 5 Trần Phú
20.968467142857147,105.7726405714286,MBB,280,207,,,Quận Hà Đông,,Đường Quang Trung
20.987004444444445,105.79661444444444,BIDV,280,58,,phat.nguyen7,Quận Nam Từ Liêm,,Đường Nguyễn Trãi
20.984156923076924,105.84378192307693,VPB,936,70,,anh.vu10,Quận Hoàng Mai,,Ngõ 192 Giáp Bát
20.867599178082195,105.85738082191781,TCB,66,224,Không có nhu cầu lắp,truong.duong,Huyện Thường Tín,,Đường Dương Trực Nguyên
21.010912173913042,105.76561478260869,TCB,1,77,Thành công cài đặt loa trong bán kính 100m
Mid: MOMO7GHL20260507,cong.nguyen3,Quận Nam Từ Liêm,,Hẻm 8/11/186 Lê Quang Đạo
21.02482916666667,105.76368666666667,TCB,689,40,,,Quận Nam Từ Liêm,,Phố Tân Mỹ
20.981246363636362,105.802195,MBB,98,48,,,Huyện Thanh Trì,,Ngách 98/20 Đường Tân Triều
21.035093333333332,105.82385333333333,TCB,782,12,Khách đang dùng bank rồi k đổi nhì nhằng,dat.tran8,Quận Ba Đình,Phường Đội Cấn,Phố Đội Cấn
21.035375833333333,105.96027416666666,VTB,886,36,,ngoc.nguyen26,Huyện Gia Lâm,,Ngõ 222
21.085573333333333,105.75126333333333,BIDV,147,18,,phat.nguyen7,Quận Bắc Từ Liêm,Phường Liên Mạc,Ngõ 101 Đường Liên Mạc
21.003751666666666,105.93762249999999,TCB,646,32,,,Huyện Gia Lâm,,Đường Trâu Quỳ
20.997945833333333,105.80938333333333,VCB,123,35,Khách đã có loa momo,cong.lan,Quận Thanh Xuân,,Đường Vũ Trọng Phụng
21.071001666666668,105.81393,MBB,430,19,,,Quận Tây Hồ,Phường Nhật Tân,Phố Nhật Chiêu
20.91544,105.70097,VTB,522,18,,,Huyện Chương Mỹ,Thị trấn Chúc Sơn,Đường Yên Sơn
21.02644272727273,105.91027484848485,TCB,337,102,,ngoc.nguyen26,Quận Long Biên,,Đường Thạch Bàn
20.989404,105.787928,TCB,776,22,,,Quận Nam Từ Liêm,Phường Trung Văn,Đường Trung Văn
20.994086,105.776592,MBB,854,12,,,Quận Nam Từ Liêm,Phường Trung Văn,Phố Đại Linh
20.951600000000003,105.809026,TPB,h73,24,,quyet.do,Huyện Thanh Trì,Xã Tả Thanh Oai,Đường Tả Thanh Oai
21.04103,105.74248,TCB,388,13,,,Quận Nam Từ Liêm,Phường Phương Canh,Đường CN1
21.0700725,105.80170875,BIDV,535,56,,tan.nguyen15,Quận Bắc Từ Liêm,,Đường Xuân Đỉnh
21.0115075,105.93909916666667,VCCB,484,30,Khách đã có loa rồi,ngoc.nguyen26,Huyện Gia Lâm,,Ngõ 27 phố Cửu Việt
20.996760625,105.87406687499998,TCB,775,40,,,Quận Hai Bà Trưng,,Phố Dương Văn Bé
21.008651999999998,105.832459,SACOM,188,39,,,Quận Đống Đa,,Ngõ 4 Phố Đặng Văn Ngữ
21.043255000000002,105.75149,TCB,509,18,,,Quận Bắc Từ Liêm,Phường Phúc Diễn,Ngõ 3 Phố Phú Kiều
21.012138679245279,105.84588037735848,TCB,179,117,,minh.nguyen24,Quận Hai Bà Trưng,,Phố Nguyễn Đình Chiểu
21.064956008230457,105.77725765432098,TCB,754,674,Đã có loa ngân hàng,tan.nguyen15,Quận Bắc Từ Liêm,,Ngõ 347 Cổ Nhuế
21.075849047619052,105.77212380952382,VTB,999,57,,,Quận Bắc Từ Liêm,,Sông Nhuệ
20.996249999999996,105.788774,TCB,840,33,,phat.nguyen7,Quận Nam Từ Liêm,,Đường Lương Thế Vinh
20.980838333333335,105.78587666666667,VIB,228,53,,vinh.nguyen12,Quận Hà Đông,,Phố Nguyễn Văn Trỗi
21.089328888888886,105.65839888888888,TCB,150,64,,,Huyện Đan Phượng,,Đường tỉnh 417
21.018236666666667,105.80399444444446,TCB,825,32,,hung.nguyen27,Quận Đống Đa,,Ngõ 157 Pháo Đài Láng
20.995314,105.608956,MBB,936,47,,ngoc.duong1,Huyện Quốc Oai,,Đường Kiều Phú
20.972149473684212,105.82003368421051,MBB,999,137,,quyet.do,Huyện Thanh Trì,,Đường cao tốc Vành đai 3
21.126642307692308,105.77553000000002,MBB,970,84,,hiep.nguyen2,Huyện Đông Anh,,Đường Kim Chung
20.984711666666669,105.88786333333334,VTB,590,19,,,Quận Hoàng Mai,Phường Lĩnh Nam,Phố Nam Dư
21.011669285714291,105.76884071428573,TCB,111,34,,cong.nguyen3,Quận Nam Từ Liêm,,Ngõ 54 Lê Quang Đạo
20.98009272727273,105.88652545454545,TCB,87,62,,anh.nguyen91,Quận Hoàng Mai,,Phố Nam Dư
20.99264,105.81473999999999,BIDV,271,120,,,Quận Thanh Xuân,,Phố Khương Hạ
21.034377272727273,105.77551818181817,TCB,435,32,,,Quận Cầu Giấy,,Ngách 58/23 Phố Trần Bình
20.979594,105.83535400000001,TPB,501,19,,dung.vu2,Quận Hoàng Mai,Phường Định Công,Phố Trịnh Đình Cửu
20.984909375,105.799339375,VCB,648,46,,hai.le8,Quận Thanh Xuân,,Phố Triều Khúc
21.02206588235294,105.77023764705883,MBB,2,48,,cong.nguyen3,Quận Nam Từ Liêm,,Ngách 322/158 Đường Mỹ Đình
21.037831052631578,105.82972210526316,TCB,21,38,,hai.le8,Quận Ba Đình,,Ngõ 158 Ngọc Hà
20.972582857142857,105.74555714285714,MBB,684,37,,,Quận Hà Đông,,Phố Ỷ La
20.964033333333333,105.72196,TPB,501,15,,,Huyện Hoài Đức,Xã Đông La,Đường An Thượng - Đông La
21.014425,105.80622666666666,MBB,696,17,,nhi.vu1,Quận Đống Đa,Phường Láng Hạ,Đường Láng
20.98990375,105.86503812500001,VTB,554,34,,truong.duong,Quận Hoàng Mai,,Đường Lĩnh Nam
20.943514,105.75674400000001,MBB,425,10,,,Quận Hà Đông,Phường Phú Lãm,Phố Xốm
21.027208999999996,105.7782342,TCB,592,152,,phat.nguyen7,Quận Nam Từ Liêm,,Đường Phạm Hùng
21.00518253968254,105.71959428571429,TCB,840,156,,thao.nguyen43,Huyện Hoài Đức,,Đường Thanh Niên
21.053092000000007,105.741015,TCB,814,49,,doan.ngo,Quận Bắc Từ Liêm,,Ngách 112/10 Phố Nguyên Xá
20.994170000000004,105.7964062162162,HDB,386,114,,,Quận Nam Từ Liêm,,Phố Vũ Hữu
21.021283684210527,105.79643315789474,TCB,777,79,,,Quận Cầu Giấy,,Phố Hạ Yên Quyết
21.03857421875,105.785735,TCB,200,174,,,Quận Cầu Giấy,,Ngõ 29 Phố Phan Văn Trường
21.068452142857144,105.80469285714285,TCB,301,55,,dat.tran8,Quận Tây Hồ,,Ngõ 38 Xuân La
21.046662553191489,105.84116659574468,TCB,333,119,,hai.le8,Quận Ba Đình,,Phố Mạc Đĩnh Chi
21.0430456043956,105.79180340659339,MSB,368,270,,phuong.nguyen44,Quận Cầu Giấy,,Phố Trần Tử Bình
21.067976666666667,105.77712,AGRIBANK,935,24,,,Quận Bắc Từ Liêm,Phường Cổ Nhuế 2,đường ăn phở
21.031825714285716,105.91552142857142,MBB,936,17,Chưa lắp,phuong.pham10,Quận Long Biên,Phường Sài Đồng,Phố Vũ Xuân Thiều
21.032211578947372,105.91600684210526,TCB,884,63,,huy.le16,Quận Long Biên,,Phố Vũ Xuân Thiều
21.04167833333333,105.79083333333334,TCB,259,41,,,Quận Cầu Giấy,,Ngõ 26 Phố Tô Hiệu
21.005468,105.736772,TPB,504,11,,,Quận Nam Từ Liêm,Phường Tây Mỗ,KĐT VInhomes smartcity
21.008443749999998,105.8340653125,BIDV,144,66,,,Quận Đống Đa,,Phố Phạm Ngọc Thạch
20.98132882352941,105.78531705882352,BIDV,606,71,,vinh.nguyen12,Quận Hà Đông,,Phố Mộ Lao
21.033387962962962,105.79852296296296,TCB,626,118,Khong lap,phuong.nguyen44,Quận Cầu Giấy,,Phố Dương Quảng Hàm
20.994827,105.640796,TCB,703,62,,ngoc.duong1,Huyện Quốc Oai,,Đường Phủ Quốc
20.890643333333333,105.85716000000001,VCCB,511,18,kh k có nhu cầu,quyet.do,Huyện Thường Tín,Xã Văn Bình,Quốc lộ 1
21.005032352941178,105.93700294117646,MBB,94,52,,,Huyện Gia Lâm,,Ngõ 86 đường Trâu Quỳ
20.997459,105.80424199999999,TCB,912,39,,,Quận Thanh Xuân,,Phố Nguyễn Huy Tưởng
21.01130375,105.821855,MBB,900,20,,,Quận Đống Đa,Phường Trung Liệt,Phố Thái Hà
20.996752857142855,105.81789142857141,TCB,323,17,,hai.le8,Quận Thanh Xuân,Phường Khương Trung,Phố Khương Trung
20.985358888888893,105.77545444444446,TPB,888,30,,,Quận Hà Đông,,Phố Tố Hữu
20.979413333333333,105.78578333333333,MBB,160,28,,,Quận Hà Đông,Phường Mộ Lao,Phố Vũ Trọng Khánh
20.9545075,105.8100725,MBB,82,14,,quyet.do,Huyện Thanh Trì,Xã Tả Thanh Oai,Đường Tả Thanh Oai
21.07065327272727,105.77725490909091,TCB,147,182,Không có nhu cầu,doan.ngo,Quận Bắc Từ Liêm,,Đường Cổ Nhuế
21.069419152542373,105.80532915254234,MBB,776,161,,dat.tran8,Quận Tây Hồ,,Ngõ 38 Xuân La
21.000675,105.67123500000001,TCB,166,19,,,Huyện Hoài Đức,Xã Vân Côn,Đường Vân Côn
21.067493333333331,105.81950833333333,VCB,403,36,,dat.tran8,Quận Tây Hồ,,Phố Quảng Bá
21.035303235294116,105.7762294117647,MBB,999,191,,nhi.vu1,Quận Cầu Giấy,,Ngõ 75 Đường Hồ Tùng Mậu
21.04121,105.77846444444444,SACOM,11,20,,dat.tran8,Quận Cầu Giấy,Phường Mai Dịch,Phố Doãn Kế Thiện
21.002436304347825,105.80553065217391,VPB,197,108,,,Quận Thanh Xuân,,Phố Ngụy Như Kon Tum
21.073661111111111,105.92980777777778,MBB,706,37,,,Huyện Gia Lâm,,Đường Dương Hà
20.982585,105.84994499999999,TCB,494,11,,dung.vu2,Quận Hoàng Mai,Phường Tân Mai,Phố Tân Mai
20.976744,105.81887,MBB,360,20,,,Quận Hoàng Mai,Phường Đại Kim,Ngách 39 Ngõ 250 Kim Giang
20.954626,105.822078,VTB,751,13,,quyet.do,Huyện Thanh Trì,Xã Tam Hiệp,Ngõ 168 Phan Trọng Tuệ
21.036577777777776,105.85168,BIDV,688,20,,,Quận Hoàn Kiếm,Phường Hàng Buồm,Phố Nguyễn Siêu
21.043321971830981,105.75230774647888,MBB,28,251,,cong.nguyen3,Quận Bắc Từ Liêm,,Phố Kiều Mai
20.993418000000002,105.86871,TCB,18,16,,vinh.nguyen12,Quận Hai Bà Trưng,Phường Vĩnh Tuy,Đường Số 7 Times City
21.024255200000002,105.801116,TCB,699,78,,minh.nguyen24,Quận Đống Đa,,Ngõ 1194 Đường Láng
21.037476,105.932202,TCB,548,12,Không có nhu cầu,phuong.pham10,Quận Long Biên,Phường Phúc Lợi,Ngách 303/2 đường Phúc Lợi
20.973657000000003,105.867012,MBB,722,26,,,Quận Hoàng Mai,Phường Yên Sở,Ngõ 885 Đường Tam Trinh
21.025838333333333,105.89930333333334,MBB,77,23,,ngoc.nguyen26,Quận Long Biên,Phường Long Biên,Đường Cổ Linh
20.975127272727271,105.86966999999999,SHINHAN,453,50,,,Quận Hoàng Mai,,Ngõ 885 Tam Trinh
21.008815,105.72234333333334,MBB,230,23,,,Huyện Hoài Đức,Xã An Khánh,An Thọ 1
21.037047999999995,105.7853236,TCB,233,54,MC đã có loa TCB,bao.pham1,Quận Cầu Giấy,,Ngõ 130 Đường Xuân Thủy
21.061441111111112,105.72211666666666,MBB,280,41,,thao.nguyen43,Huyện Hoài Đức,,Đường Vạn Xuân
21.069634736842108,105.82286842105263,BIDV,TN8,45,,dat.tran8,Quận Tây Hồ,,Phố Quảng Bá
20.96370090909091,105.82166727272727,MBB,102,24,Đã có loa không có nhu cầu,truong.duong,Quận Hoàng Mai,Phường Hoàng Liệt,Phố Bùi Quốc Khái
21.02857375,105.8062625,VCB,289,16,,,Quận Ba Đình,Phường Ngọc Khánh,Đường La Thành
21.07153135135135,105.77721324324324,TCB,912,69,,phat.nguyen7,Quận Bắc Từ Liêm,,Phố Nguyễn Đình Tứ
21.062852857142857,105.83221,VTB,675,19,,,Quận Tây Hồ,Phường Tứ Liên,Đường Âu Cơ
21.02881,105.772974,TCB,730,13,,,Quận Nam Từ Liêm,Phường Mỹ Đình 2,Đường Phú Mỹ
20.95292,105.83375,VTB,686,14,,quyet.do,Huyện Thanh Trì,Xã Tam Hiệp,Đường Tựu Liệt
20.9676528,105.78246946666667,TCB,436,223,,,Quận Hà Đông,,Phố Bà Triệu
21.032240606060608,105.79977636363638,MBB,556,94,,,Quận Cầu Giấy,,Ngõ 118 Đường Cầu Giấy
